{
  "ModelEvaluations": 0,
  "Skills": [
    "SQL Server Admin",
    "SQL Server Development",
    "Windows Server",
    "Data Factory",
    "C# Development",
    "Integration Services",
    "Reporting Services",
    "Azure Machine Learning",
    "SQL Server on Linux"
  ],
  "Engineers": [
    {
      "Name": "E0",
      "AssignedRequests": {},
      "Skills": [
        "Windows Server",
        "C# Development"
      ],
      "HomeOffice": {
        "Latitude": 21.92040489,
        "Longitude": 110.8700179,
        "City": "Maoming",
        "Postcode": "",
        "Country": "China",
        "Address": ""
      }
    },
    {
      "Name": "E1",
      "AssignedRequests": {},
      "Skills": [
        "SQL Server Development",
        "SQL Server Admin",
        "Integration Services"
      ],
      "HomeOffice": {
        "Latitude": 47.38037539,
        "Longitude": 0.699946654,
        "City": "Tours",
        "Postcode": "",
        "Country": "France",
        "Address": ""
      }
    },
    {
      "Name": "E2",
      "AssignedRequests": {},
      "Skills": [
        "C# Development",
        "Azure Machine Learning",
        "Windows Server",
        "SQL Server Admin"
      ],
      "HomeOffice": {
        "Latitude": 54.17037437,
        "Longitude": 45.18002234,
        "City": "Saransk",
        "Postcode": "",
        "Country": "Russia",
        "Address": ""
      }
    },
    {
      "Name": "E3",
      "AssignedRequests": {},
      "Skills": [
        "Integration Services",
        "Reporting Services",
        "Windows Server",
        "SQL Server Admin"
      ],
      "HomeOffice": {
        "Latitude": 42.32662701,
        "Longitude": -122.8744227,
        "City": "Medford",
        "Postcode": "",
        "Country": "United States of America",
        "Address": ""
      }
    },
    {
      "Name": "E4",
      "AssignedRequests": {},
      "Skills": [
        "Data Factory",
        "Integration Services",
        "SQL Server on Linux"
      ],
      "HomeOffice": {
        "Latitude": 51.77499086,
        "Longitude": 19.45136023,
        "City": "Lódz",
        "Postcode": "",
        "Country": "Poland",
        "Address": ""
      }
    },
    {
      "Name": "E5",
      "AssignedRequests": {},
      "Skills": [
        "SQL Server Admin",
        "Reporting Services",
        "C# Development"
      ],
      "HomeOffice": {
        "Latitude": 23.0488889,
        "Longitude": 113.7447222,
        "City": "Dongguan",
        "Postcode": "",
        "Country": "China",
        "Address": ""
      }
    },
    {
      "Name": "E6",
      "AssignedRequests": {},
      "Skills": [
        "C# Development",
        "Azure Machine Learning",
        "SQL Server Admin",
        "SQL Server Development"
      ],
      "HomeOffice": {
        "Latitude": 26.07999595,
        "Longitude": 119.3000459,
        "City": "Fuzhou",
        "Postcode": "",
        "Country": "China",
        "Address": ""
      }
    },
    {
      "Name": "E7",
      "AssignedRequests": {},
      "Skills": [
        "C# Development",
        "SQL Server on Linux"
      ],
      "HomeOffice": {
        "Latitude": 53.20002016,
        "Longitude": -105.7499899,
        "City": "Prince Albert",
        "Postcode": "",
        "Country": "Canada",
        "Address": ""
      }
    },
    {
      "Name": "E8",
      "AssignedRequests": {},
      "Skills": [
        "C# Development",
        "Integration Services",
        "SQL Server on Linux",
        "Data Factory"
      ],
      "HomeOffice": {
        "Latitude": 33.68999703,
        "Longitude": 8.971002538,
        "City": "Kebili",
        "Postcode": "",
        "Country": "Tunisia",
        "Address": ""
      }
    },
    {
      "Name": "E9",
      "AssignedRequests": {},
      "Skills": [
        "Data Factory",
        "Windows Server",
        "C# Development"
      ],
      "HomeOffice": {
        "Latitude": 57.63365135,
        "Longitude": 18.30000932,
        "City": "Visby",
        "Postcode": "",
        "Country": "Sweden",
        "Address": ""
      }
    },
    {
      "Name": "E10",
      "AssignedRequests": {},
      "Skills": [
        "C# Development",
        "Azure Machine Learning",
        "Reporting Services"
      ],
      "HomeOffice": {
        "Latitude": -75.04959349,
        "Longitude": -13.41671106,
        "City": "Aboa Station",
        "Postcode": "",
        "Country": "Antarctica",
        "Address": ""
      }
    },
    {
      "Name": "E11",
      "AssignedRequests": {},
      "Skills": [
        "SQL Server on Linux",
        "Integration Services"
      ],
      "HomeOffice": {
        "Latitude": 30.27495953,
        "Longitude": -89.78109379,
        "City": "Slidell",
        "Postcode": "",
        "Country": "United States of America",
        "Address": ""
      }
    },
    {
      "Name": "E12",
      "AssignedRequests": {},
      "Skills": [
        "C# Development",
        "Reporting Services",
        "Windows Server"
      ],
      "HomeOffice": {
        "Latitude": 30.46666512,
        "Longitude": 31.18333563,
        "City": "Benha",
        "Postcode": "",
        "Country": "Egypt",
        "Address": ""
      }
    },
    {
      "Name": "E13",
      "AssignedRequests": {},
      "Skills": [
        "Integration Services",
        "Reporting Services",
        "SQL Server Development",
        "Azure Machine Learning"
      ],
      "HomeOffice": {
        "Latitude": 41.90001223,
        "Longitude": 126.4299983,
        "City": "Baishan",
        "Postcode": "",
        "Country": "China",
        "Address": ""
      }
    },
    {
      "Name": "E14",
      "AssignedRequests": {},
      "Skills": [
        "SQL Server Development",
        "Data Factory"
      ],
      "HomeOffice": {
        "Latitude": 2.329998595,
        "Longitude": 37.9799967,
        "City": "Marsabit",
        "Postcode": "",
        "Country": "Kenya",
        "Address": ""
      }
    },
    {
      "Name": "E15",
      "AssignedRequests": {},
      "Skills": [
        "Reporting Services",
        "Data Factory",
        "SQL Server Development"
      ],
      "HomeOffice": {
        "Latitude": -12.71660236,
        "Longitude": -60.11659957,
        "City": "Vilhena",
        "Postcode": "",
        "Country": "Brazil",
        "Address": ""
      }
    },
    {
      "Name": "E16",
      "AssignedRequests": {},
      "Skills": [
        "Reporting Services",
        "Data Factory",
        "SQL Server on Linux",
        "C# Development"
      ],
      "HomeOffice": {
        "Latitude": 62.3237785,
        "Longitude": -150.1094269,
        "City": "Talkeetna",
        "Postcode": "",
        "Country": "United States of America",
        "Address": ""
      }
    },
    {
      "Name": "E17",
      "AssignedRequests": {},
      "Skills": [
        "Integration Services",
        "SQL Server Admin",
        "Data Factory",
        "Windows Server"
      ],
      "HomeOffice": {
        "Latitude": 60.38079632,
        "Longitude": 107.7794055,
        "City": "Yerema",
        "Postcode": "",
        "Country": "Russia",
        "Address": ""
      }
    },
    {
      "Name": "E18",
      "AssignedRequests": {},
      "Skills": [
        "Azure Machine Learning",
        "SQL Server on Linux",
        "Integration Services"
      ],
      "HomeOffice": {
        "Latitude": 39.93036501,
        "Longitude": 119.6200264,
        "City": "Qinhuangdao",
        "Postcode": "",
        "Country": "China",
        "Address": ""
      }
    },
    {
      "Name": "E19",
      "AssignedRequests": {},
      "Skills": [
        "Azure Machine Learning",
        "SQL Server Development",
        "Integration Services"
      ],
      "HomeOffice": {
        "Latitude": 10.6854059,
        "Longitude": -14.60501062,
        "City": "Kamsar",
        "Postcode": "",
        "Country": "Guinea",
        "Address": ""
      }
    },
    {
      "Name": "E20",
      "AssignedRequests": {},
      "Skills": [
        "Integration Services",
        "SQL Server Development",
        "C# Development",
        "SQL Server on Linux"
      ],
      "HomeOffice": {
        "Latitude": -28.25002114,
        "Longitude": -52.41998926,
        "City": "Passo Fundo",
        "Postcode": "",
        "Country": "Brazil",
        "Address": ""
      }
    },
    {
      "Name": "E21",
      "AssignedRequests": {},
      "Skills": [
        "Data Factory",
        "C# Development",
        "Integration Services"
      ],
      "HomeOffice": {
        "Latitude": 37.07498374,
        "Longitude": 41.21835201,
        "City": "Nusaybin",
        "Postcode": "",
        "Country": "Turkey",
        "Address": ""
      }
    },
    {
      "Name": "E22",
      "AssignedRequests": {},
      "Skills": [
        "C# Development",
        "SQL Server Admin"
      ],
      "HomeOffice": {
        "Latitude": 48.56663373,
        "Longitude": -78.11666366,
        "City": "Amos",
        "Postcode": "",
        "Country": "Canada",
        "Address": ""
      }
    },
    {
      "Name": "E23",
      "AssignedRequests": {},
      "Skills": [
        "SQL Server Admin",
        "Reporting Services",
        "Integration Services"
      ],
      "HomeOffice": {
        "Latitude": 22.92638999,
        "Longitude": 57.53141313,
        "City": "Nizwa",
        "Postcode": "",
        "Country": "Oman",
        "Address": ""
      }
    },
    {
      "Name": "E24",
      "AssignedRequests": {},
      "Skills": [
        "Integration Services",
        "Data Factory",
        "SQL Server on Linux"
      ],
      "HomeOffice": {
        "Latitude": 14.21203819,
        "Longitude": 1.453078978,
        "City": "Tillaberi",
        "Postcode": "",
        "Country": "Niger",
        "Address": ""
      }
    },
    {
      "Name": "E25",
      "AssignedRequests": {},
      "Skills": [
        "Windows Server",
        "C# Development",
        "Reporting Services",
        "Azure Machine Learning"
      ],
      "HomeOffice": {
        "Latitude": 42.87473309,
        "Longitude": 47.62436926,
        "City": "Kaspiysk",
        "Postcode": "",
        "Country": "Russia",
        "Address": ""
      }
    },
    {
      "Name": "E26",
      "AssignedRequests": {},
      "Skills": [
        "Integration Services",
        "Azure Machine Learning",
        "SQL Server Admin",
        "SQL Server on Linux"
      ],
      "HomeOffice": {
        "Latitude": -0.533315004,
        "Longitude": -90.34999964,
        "City": "Santa Cruz",
        "Postcode": "",
        "Country": "Ecuador",
        "Address": ""
      }
    },
    {
      "Name": "E27",
      "AssignedRequests": {},
      "Skills": [
        "C# Development",
        "SQL Server on Linux",
        "Integration Services"
      ],
      "HomeOffice": {
        "Latitude": 40.14360781,
        "Longitude": 124.3935852,
        "City": "Dandong",
        "Postcode": "",
        "Country": "China",
        "Address": ""
      }
    },
    {
      "Name": "E28",
      "AssignedRequests": {},
      "Skills": [
        "SQL Server Development",
        "C# Development",
        "Azure Machine Learning",
        "SQL Server Admin"
      ],
      "HomeOffice": {
        "Latitude": 12.20042971,
        "Longitude": -69.01998377,
        "City": "Willemstad",
        "Postcode": "",
        "Country": "Curacao",
        "Address": ""
      }
    },
    {
      "Name": "E29",
      "AssignedRequests": {},
      "Skills": [
        "Windows Server",
        "C# Development",
        "Integration Services",
        "SQL Server on Linux"
      ],
      "HomeOffice": {
        "Latitude": 57.9200163,
        "Longitude": 59.9749849,
        "City": "Nizhny Tagil",
        "Postcode": "",
        "Country": "Russia",
        "Address": ""
      }
    },
    {
      "Name": "E30",
      "AssignedRequests": {},
      "Skills": [
        "SQL Server Admin",
        "Integration Services"
      ],
      "HomeOffice": {
        "Latitude": 0.040035013,
        "Longitude": 18.26001176,
        "City": "Mbandaka",
        "Postcode": "",
        "Country": "Congo (Kinshasa)",
        "Address": ""
      }
    },
    {
      "Name": "E31",
      "AssignedRequests": {},
      "Skills": [
        "Windows Server",
        "SQL Server on Linux"
      ],
      "HomeOffice": {
        "Latitude": 17.55038739,
        "Longitude": -14.70004358,
        "City": "Boutilimit",
        "Postcode": "",
        "Country": "Mauritania",
        "Address": ""
      }
    },
    {
      "Name": "E32",
      "AssignedRequests": {},
      "Skills": [
        "Azure Machine Learning",
        "Reporting Services",
        "SQL Server Development"
      ],
      "HomeOffice": {
        "Latitude": 27.00040489,
        "Longitude": 84.86659216,
        "City": "Birganj",
        "Postcode": "",
        "Country": "Nepal",
        "Address": ""
      }
    },
    {
      "Name": "E33",
      "AssignedRequests": {},
      "Skills": [
        "Reporting Services",
        "C# Development"
      ],
      "HomeOffice": {
        "Latitude": -22.26252776,
        "Longitude": 166.4442852,
        "City": "Noumea",
        "Postcode": "",
        "Country": "New Caledonia",
        "Address": ""
      }
    },
    {
      "Name": "E34",
      "AssignedRequests": {},
      "Skills": [
        "SQL Server Development",
        "Reporting Services",
        "Data Factory",
        "Windows Server"
      ],
      "HomeOffice": {
        "Latitude": 24.90355613,
        "Longitude": 91.87360632,
        "City": "Sylhet",
        "Postcode": "",
        "Country": "Bangladesh",
        "Address": ""
      }
    },
    {
      "Name": "E35",
      "AssignedRequests": {},
      "Skills": [
        "SQL Server Development",
        "C# Development",
        "SQL Server on Linux",
        "Azure Machine Learning"
      ],
      "HomeOffice": {
        "Latitude": 34.19399705,
        "Longitude": 43.87500062,
        "City": "Samarra",
        "Postcode": "",
        "Country": "Iraq",
        "Address": ""
      }
    },
    {
      "Name": "E36",
      "AssignedRequests": {},
      "Skills": [
        "Azure Machine Learning",
        "SQL Server on Linux",
        "Reporting Services",
        "C# Development"
      ],
      "HomeOffice": {
        "Latitude": 14.91900304,
        "Longitude": -88.23599963,
        "City": "Santa Barbara",
        "Postcode": "",
        "Country": "Honduras",
        "Address": ""
      }
    },
    {
      "Name": "E37",
      "AssignedRequests": {},
      "Skills": [
        "C# Development",
        "Reporting Services",
        "Data Factory"
      ],
      "HomeOffice": {
        "Latitude": 38.41043194,
        "Longitude": 112.7199825,
        "City": "Xinzhou",
        "Postcode": "",
        "Country": "China",
        "Address": ""
      }
    },
    {
      "Name": "E38",
      "AssignedRequests": {},
      "Skills": [
        "Windows Server",
        "SQL Server on Linux",
        "Reporting Services",
        "SQL Server Admin"
      ],
      "HomeOffice": {
        "Latitude": 41.17997866,
        "Longitude": -73.19996118,
        "City": "Bridgeport",
        "Postcode": "",
        "Country": "United States of America",
        "Address": ""
      }
    },
    {
      "Name": "E39",
      "AssignedRequests": {},
      "Skills": [
        "Data Factory",
        "Reporting Services",
        "Integration Services"
      ],
      "HomeOffice": {
        "Latitude": 38.25000246,
        "Longitude": 48.30003861,
        "City": "Ardabil",
        "Postcode": "",
        "Country": "Iran",
        "Address": ""
      }
    },
    {
      "Name": "E40",
      "AssignedRequests": {},
      "Skills": [
        "Azure Machine Learning",
        "SQL Server on Linux"
      ],
      "HomeOffice": {
        "Latitude": -33.46613686,
        "Longitude": -67.54999597,
        "City": "La Paz",
        "Postcode": "",
        "Country": "Argentina",
        "Address": ""
      }
    },
    {
      "Name": "E41",
      "AssignedRequests": {},
      "Skills": [
        "Windows Server",
        "Reporting Services",
        "SQL Server Admin"
      ],
      "HomeOffice": {
        "Latitude": -6.319576804,
        "Longitude": -47.41998438,
        "City": "Tocantinopolis",
        "Postcode": "",
        "Country": "Brazil",
        "Address": ""
      }
    }
  ],
  "Requests": [
    {
      "SelectedOption": null,
      "Duration": 2,
      "PossibleStartDays": [
        2,
        25,
        24,
        26,
        0
      ],
      "SkillsRequested": [
        "Data Factory"
      ],
      "RequestLocation": {
        "Latitude": 58.4515084,
        "Longitude": 92.15653479,
        "City": "Yeniseysk",
        "Postcode": "",
        "Country": "Russia",
        "Address": ""
      }
    },
    {
      "SelectedOption": null,
      "Duration": 2,
      "PossibleStartDays": [
        28,
        0,
        1,
        22,
        23
      ],
      "SkillsRequested": [
        "SQL Server Development"
      ],
      "RequestLocation": {
        "Latitude": 45.10038535,
        "Longitude": -87.63047571,
        "City": "Marinette",
        "Postcode": "",
        "Country": "United States of America",
        "Address": ""
      }
    },
    {
      "SelectedOption": null,
      "Duration": 1,
      "PossibleStartDays": [
        24,
        2,
        13,
        28,
        23
      ],
      "SkillsRequested": [
        "Data Factory"
      ],
      "RequestLocation": {
        "Latitude": -34.38292845,
        "Longitude": 136.0833109,
        "City": "Tumby Bay",
        "Postcode": "",
        "Country": "Australia",
        "Address": ""
      }
    },
    {
      "SelectedOption": null,
      "Duration": 3,
      "PossibleStartDays": [
        24,
        10,
        27,
        0,
        7
      ],
      "SkillsRequested": [
        "SQL Server Development"
      ],
      "RequestLocation": {
        "Latitude": 40.40002626,
        "Longitude": -3.683351686,
        "City": "Madrid",
        "Postcode": "",
        "Country": "Spain",
        "Address": ""
      }
    },
    {
      "SelectedOption": null,
      "Duration": 4,
      "PossibleStartDays": [
        6,
        17,
        10,
        11,
        19
      ],
      "SkillsRequested": [
        "Azure Machine Learning"
      ],
      "RequestLocation": {
        "Latitude": 41.68330711,
        "Longitude": -86.25001734,
        "City": "South Bend",
        "Postcode": "",
        "Country": "United States of America",
        "Address": ""
      }
    },
    {
      "SelectedOption": null,
      "Duration": 2,
      "PossibleStartDays": [
        28,
        2,
        3,
        7,
        8
      ],
      "SkillsRequested": [
        "Azure Machine Learning"
      ],
      "RequestLocation": {
        "Latitude": 51.22037355,
        "Longitude": 3.230024779,
        "City": "Brugge",
        "Postcode": "",
        "Country": "Belgium",
        "Address": ""
      }
    },
    {
      "SelectedOption": null,
      "Duration": 4,
      "PossibleStartDays": [
        23,
        26,
        9,
        0,
        22
      ],
      "SkillsRequested": [
        "SQL Server on Linux"
      ],
      "RequestLocation": {
        "Latitude": -7.620014222,
        "Longitude": 15.04997514,
        "City": "Uige",
        "Postcode": "",
        "Country": "Angola",
        "Address": ""
      }
    },
    {
      "SelectedOption": null,
      "Duration": 1,
      "PossibleStartDays": [
        9,
        28,
        19,
        1,
        15
      ],
      "SkillsRequested": [
        "SQL Server Admin"
      ],
      "RequestLocation": {
        "Latitude": 27.51595481,
        "Longitude": -97.8558464,
        "City": "Kingsville",
        "Postcode": "",
        "Country": "United States of America",
        "Address": ""
      }
    },
    {
      "SelectedOption": null,
      "Duration": 4,
      "PossibleStartDays": [
        5,
        7,
        21,
        1,
        8
      ],
      "SkillsRequested": [
        "SQL Server Development"
      ],
      "RequestLocation": {
        "Latitude": 41.12036989,
        "Longitude": 121.1000394,
        "City": "Jinzhou",
        "Postcode": "",
        "Country": "China",
        "Address": ""
      }
    },
    {
      "SelectedOption": null,
      "Duration": 1,
      "PossibleStartDays": [
        25,
        1,
        20,
        12,
        19
      ],
      "SkillsRequested": [
        "Reporting Services"
      ],
      "RequestLocation": {
        "Latitude": 44.62005292,
        "Longitude": 41.95003861,
        "City": "Nevinnomyssk",
        "Postcode": "",
        "Country": "Russia",
        "Address": ""
      }
    },
    {
      "SelectedOption": null,
      "Duration": 3,
      "PossibleStartDays": [
        1,
        13,
        3,
        17,
        15
      ],
      "SkillsRequested": [
        "Data Factory"
      ],
      "RequestLocation": {
        "Latitude": -29.40995034,
        "Longitude": -66.84996118,
        "City": "La Rioja",
        "Postcode": "",
        "Country": "Argentina",
        "Address": ""
      }
    },
    {
      "SelectedOption": null,
      "Duration": 1,
      "PossibleStartDays": [
        13,
        18,
        0,
        4,
        6
      ],
      "SkillsRequested": [
        "SQL Server Development"
      ],
      "RequestLocation": {
        "Latitude": 14.39995953,
        "Longitude": 33.52001054,
        "City": "Medani",
        "Postcode": "",
        "Country": "Sudan",
        "Address": ""
      }
    },
    {
      "SelectedOption": null,
      "Duration": 4,
      "PossibleStartDays": [
        20,
        1,
        3,
        21,
        9
      ],
      "SkillsRequested": [
        "Windows Server"
      ],
      "RequestLocation": {
        "Latitude": 23.00039064,
        "Longitude": -99.71999618,
        "City": "Tula",
        "Postcode": "",
        "Country": "Mexico",
        "Address": ""
      }
    },
    {
      "SelectedOption": null,
      "Duration": 4,
      "PossibleStartDays": [
        18,
        4,
        21,
        15,
        16
      ],
      "SkillsRequested": [
        "Reporting Services"
      ],
      "RequestLocation": {
        "Latitude": 43.69045506,
        "Longitude": 51.14173561,
        "City": "Mangyshlak",
        "Postcode": "",
        "Country": "Kazakhstan",
        "Address": ""
      }
    },
    {
      "SelectedOption": null,
      "Duration": 2,
      "PossibleStartDays": [
        9,
        0,
        1,
        20,
        29
      ],
      "SkillsRequested": [
        "SQL Server on Linux"
      ],
      "RequestLocation": {
        "Latitude": -27.66003131,
        "Longitude": 27.2100081,
        "City": "Kroonstad",
        "Postcode": "",
        "Country": "South Africa",
        "Address": ""
      }
    },
    {
      "SelectedOption": null,
      "Duration": 2,
      "PossibleStartDays": [
        20,
        3,
        15,
        14,
        28
      ],
      "SkillsRequested": [
        "Integration Services"
      ],
      "RequestLocation": {
        "Latitude": 18.92110476,
        "Longitude": -99.23999964,
        "City": "Cuernavaca",
        "Postcode": "",
        "Country": "Mexico",
        "Address": ""
      }
    },
    {
      "SelectedOption": null,
      "Duration": 2,
      "PossibleStartDays": [
        18,
        12,
        9,
        1,
        3
      ],
      "SkillsRequested": [
        "Reporting Services"
      ],
      "RequestLocation": {
        "Latitude": 42.70316734,
        "Longitude": 9.450006875,
        "City": "Bastia",
        "Postcode": "",
        "Country": "France",
        "Address": ""
      }
    },
    {
      "SelectedOption": null,
      "Duration": 4,
      "PossibleStartDays": [
        27,
        1,
        3,
        19,
        7
      ],
      "SkillsRequested": [
        "SQL Server on Linux"
      ],
      "RequestLocation": {
        "Latitude": 48.35000612,
        "Longitude": 10.89999589,
        "City": "Augsburg",
        "Postcode": "",
        "Country": "Germany",
        "Address": ""
      }
    },
    {
      "SelectedOption": null,
      "Duration": 1,
      "PossibleStartDays": [
        27,
        15,
        18,
        0,
        10
      ],
      "SkillsRequested": [
        "Azure Machine Learning"
      ],
      "RequestLocation": {
        "Latitude": 31.48000226,
        "Longitude": 92.05002966,
        "City": "Nagchu",
        "Postcode": "",
        "Country": "China",
        "Address": ""
      }
    },
    {
      "SelectedOption": null,
      "Duration": 1,
      "PossibleStartDays": [
        9,
        24,
        17,
        3,
        5
      ],
      "SkillsRequested": [
        "Reporting Services"
      ],
      "RequestLocation": {
        "Latitude": 5.716613585,
        "Longitude": -75.31662785,
        "City": "Sonson",
        "Postcode": "",
        "Country": "Colombia",
        "Address": ""
      }
    },
    {
      "SelectedOption": null,
      "Duration": 1,
      "PossibleStartDays": [
        22,
        11,
        16,
        8,
        26
      ],
      "SkillsRequested": [
        "Azure Machine Learning"
      ],
      "RequestLocation": {
        "Latitude": -3.36001585,
        "Longitude": -64.69998906,
        "City": "Tefe",
        "Postcode": "",
        "Country": "Brazil",
        "Address": ""
      }
    },
    {
      "SelectedOption": null,
      "Duration": 1,
      "PossibleStartDays": [
        23,
        27,
        9,
        28,
        21
      ],
      "SkillsRequested": [
        "Reporting Services"
      ],
      "RequestLocation": {
        "Latitude": 22.10985069,
        "Longitude": -78.62748519,
        "City": "Moron",
        "Postcode": "",
        "Country": "Cuba",
        "Address": ""
      }
    },
    {
      "SelectedOption": null,
      "Duration": 2,
      "PossibleStartDays": [
        18,
        1,
        29,
        21,
        7
      ],
      "SkillsRequested": [
        "Windows Server"
      ],
      "RequestLocation": {
        "Latitude": 34.93299562,
        "Longitude": -95.76597396,
        "City": "McAlester",
        "Postcode": "",
        "Country": "United States of America",
        "Address": ""
      }
    },
    {
      "SelectedOption": null,
      "Duration": 2,
      "PossibleStartDays": [
        24,
        4,
        23,
        25,
        26
      ],
      "SkillsRequested": [
        "Windows Server"
      ],
      "RequestLocation": {
        "Latitude": -36.33004474,
        "Longitude": -57.68997766,
        "City": "Dolores",
        "Postcode": "",
        "Country": "Argentina",
        "Address": ""
      }
    },
    {
      "SelectedOption": null,
      "Duration": 4,
      "PossibleStartDays": [
        15,
        25,
        20,
        18,
        0
      ],
      "SkillsRequested": [
        "SQL Server Admin"
      ],
      "RequestLocation": {
        "Latitude": 6.730375996,
        "Longitude": -3.490004315,
        "City": "Abengourou",
        "Postcode": "",
        "Country": "Ivory Coast",
        "Address": ""
      }
    },
    {
      "SelectedOption": null,
      "Duration": 2,
      "PossibleStartDays": [
        17,
        7,
        29,
        23,
        11
      ],
      "SkillsRequested": [
        "Windows Server"
      ],
      "RequestLocation": {
        "Latitude": 1.560407327,
        "Longitude": 30.24000403,
        "City": "Bunia",
        "Postcode": "",
        "Country": "Congo (Kinshasa)",
        "Address": ""
      }
    },
    {
      "SelectedOption": null,
      "Duration": 3,
      "PossibleStartDays": [
        4,
        6,
        12,
        2,
        14
      ],
      "SkillsRequested": [
        "C# Development"
      ],
      "RequestLocation": {
        "Latitude": 10.51267743,
        "Longitude": 99.18721676,
        "City": "Chumphon",
        "Postcode": "",
        "Country": "Thailand",
        "Address": ""
      }
    },
    {
      "SelectedOption": null,
      "Duration": 1,
      "PossibleStartDays": [
        2,
        28,
        16,
        25,
        29
      ],
      "SkillsRequested": [
        "SQL Server on Linux"
      ],
      "RequestLocation": {
        "Latitude": -25.02194623,
        "Longitude": 44.07494694,
        "City": "Androka",
        "Postcode": "",
        "Country": "Madagascar",
        "Address": ""
      }
    },
    {
      "SelectedOption": null,
      "Duration": 1,
      "PossibleStartDays": [
        18,
        28,
        1,
        16,
        0
      ],
      "SkillsRequested": [
        "C# Development"
      ],
      "RequestLocation": {
        "Latitude": 27.5453587,
        "Longitude": 76.6049259,
        "City": "Alwar",
        "Postcode": "",
        "Country": "India",
        "Address": ""
      }
    },
    {
      "SelectedOption": null,
      "Duration": 1,
      "PossibleStartDays": [
        12,
        20,
        0,
        1,
        15
      ],
      "SkillsRequested": [
        "Data Factory"
      ],
      "RequestLocation": {
        "Latitude": -25.95527749,
        "Longitude": 32.58916296,
        "City": "Maputo",
        "Postcode": "",
        "Country": "Mozambique",
        "Address": ""
      }
    },
    {
      "SelectedOption": null,
      "Duration": 1,
      "PossibleStartDays": [
        0,
        8,
        21,
        20,
        1
      ],
      "SkillsRequested": [
        "SQL Server Admin"
      ],
      "RequestLocation": {
        "Latitude": 7.880409158,
        "Longitude": -11.18997359,
        "City": "Kenema",
        "Postcode": "",
        "Country": "Sierra Leone",
        "Address": ""
      }
    },
    {
      "SelectedOption": null,
      "Duration": 4,
      "PossibleStartDays": [
        4,
        18,
        28,
        13,
        22
      ],
      "SkillsRequested": [
        "Reporting Services"
      ],
      "RequestLocation": {
        "Latitude": -17.06961831,
        "Longitude": 15.73003699,
        "City": "Ondjiva",
        "Postcode": "",
        "Country": "Angola",
        "Address": ""
      }
    },
    {
      "SelectedOption": null,
      "Duration": 2,
      "PossibleStartDays": [
        16,
        10,
        29,
        13,
        19
      ],
      "SkillsRequested": [
        "SQL Server Development"
      ],
      "RequestLocation": {
        "Latitude": -37.98291543,
        "Longitude": 176.9999865,
        "City": "Whakatane",
        "Postcode": "",
        "Country": "New Zealand",
        "Address": ""
      }
    },
    {
      "SelectedOption": null,
      "Duration": 2,
      "PossibleStartDays": [
        18,
        29,
        20,
        24,
        2
      ],
      "SkillsRequested": [
        "SQL Server Development"
      ],
      "RequestLocation": {
        "Latitude": 20.2775,
        "Longitude": 100.4127778,
        "City": "Ban Houayxay",
        "Postcode": "",
        "Country": "Laos",
        "Address": ""
      }
    },
    {
      "SelectedOption": null,
      "Duration": 2,
      "PossibleStartDays": [
        5,
        13,
        24,
        21,
        9
      ],
      "SkillsRequested": [
        "Azure Machine Learning"
      ],
      "RequestLocation": {
        "Latitude": 32.49071576,
        "Longitude": 45.83037024,
        "City": "Al Kut",
        "Postcode": "",
        "Country": "Iraq",
        "Address": ""
      }
    },
    {
      "SelectedOption": null,
      "Duration": 3,
      "PossibleStartDays": [
        27,
        9,
        11,
        2,
        4
      ],
      "SkillsRequested": [
        "Integration Services"
      ],
      "RequestLocation": {
        "Latitude": 14.79699906,
        "Longitude": -89.54399653,
        "City": "Chiquimula",
        "Postcode": "",
        "Country": "Guatemala",
        "Address": ""
      }
    },
    {
      "SelectedOption": null,
      "Duration": 3,
      "PossibleStartDays": [
        24,
        15,
        5,
        7,
        10
      ],
      "SkillsRequested": [
        "SQL Server Admin"
      ],
      "RequestLocation": {
        "Latitude": 36.58625388,
        "Longitude": -79.39531946,
        "City": "Danville",
        "Postcode": "",
        "Country": "United States of America",
        "Address": ""
      }
    },
    {
      "SelectedOption": null,
      "Duration": 2,
      "PossibleStartDays": [
        18,
        2,
        9,
        6,
        19
      ],
      "SkillsRequested": [
        "Reporting Services"
      ],
      "RequestLocation": {
        "Latitude": 67.16433575,
        "Longitude": 32.41439327,
        "City": "Kandalaksha",
        "Postcode": "",
        "Country": "Russia",
        "Address": ""
      }
    },
    {
      "SelectedOption": null,
      "Duration": 3,
      "PossibleStartDays": [
        8,
        19,
        26,
        27,
        24
      ],
      "SkillsRequested": [
        "SQL Server Admin"
      ],
      "RequestLocation": {
        "Latitude": 2.049989847,
        "Longitude": -50.80001062,
        "City": "Amapa",
        "Postcode": "",
        "Country": "Brazil",
        "Address": ""
      }
    },
    {
      "SelectedOption": null,
      "Duration": 4,
      "PossibleStartDays": [
        9,
        26,
        4,
        0,
        14
      ],
      "SkillsRequested": [
        "C# Development"
      ],
      "RequestLocation": {
        "Latitude": -0.979592673,
        "Longitude": -77.80998987,
        "City": "Tena",
        "Postcode": "",
        "Country": "Ecuador",
        "Address": ""
      }
    },
    {
      "SelectedOption": null,
      "Duration": 2,
      "PossibleStartDays": [
        8,
        28,
        17,
        25,
        0
      ],
      "SkillsRequested": [
        "Reporting Services"
      ],
      "RequestLocation": {
        "Latitude": 56.67363243,
        "Longitude": 66.29826819,
        "City": "Yalutorovsk",
        "Postcode": "",
        "Country": "Russia",
        "Address": ""
      }
    },
    {
      "SelectedOption": null,
      "Duration": 1,
      "PossibleStartDays": [
        19,
        9,
        21,
        20,
        6
      ],
      "SkillsRequested": [
        "Reporting Services"
      ],
      "RequestLocation": {
        "Latitude": 62.9568148,
        "Longitude": -155.5957845,
        "City": "McGrath",
        "Postcode": "",
        "Country": "United States of America",
        "Address": ""
      }
    },
    {
      "SelectedOption": null,
      "Duration": 4,
      "PossibleStartDays": [
        9,
        5,
        27,
        20,
        7
      ],
      "SkillsRequested": [
        "Data Factory"
      ],
      "RequestLocation": {
        "Latitude": -8.516651999,
        "Longitude": 179.2166471,
        "City": "Funafuti",
        "Postcode": "",
        "Country": "Tuvalu",
        "Address": ""
      }
    },
    {
      "SelectedOption": null,
      "Duration": 4,
      "PossibleStartDays": [
        25,
        18,
        17,
        22,
        14
      ],
      "SkillsRequested": [
        "SQL Server Admin"
      ],
      "RequestLocation": {
        "Latitude": 46.53042727,
        "Longitude": 6.650022744,
        "City": "Lausanne",
        "Postcode": "",
        "Country": "Switzerland",
        "Address": ""
      }
    },
    {
      "SelectedOption": null,
      "Duration": 2,
      "PossibleStartDays": [
        15,
        12,
        7,
        17,
        27
      ],
      "SkillsRequested": [
        "Azure Machine Learning"
      ],
      "RequestLocation": {
        "Latitude": 54.89766848,
        "Longitude": 99.02769161,
        "City": "Nizhneudinsk",
        "Postcode": "",
        "Country": "Russia",
        "Address": ""
      }
    },
    {
      "SelectedOption": null,
      "Duration": 1,
      "PossibleStartDays": [
        0,
        24,
        19,
        5,
        27
      ],
      "SkillsRequested": [
        "Integration Services"
      ],
      "RequestLocation": {
        "Latitude": 43.21564252,
        "Longitude": 27.89528926,
        "City": "Varna",
        "Postcode": "",
        "Country": "Bulgaria",
        "Address": ""
      }
    },
    {
      "SelectedOption": null,
      "Duration": 1,
      "PossibleStartDays": [
        12,
        16,
        10,
        7,
        1
      ],
      "SkillsRequested": [
        "SQL Server on Linux"
      ],
      "RequestLocation": {
        "Latitude": 7.629959329,
        "Longitude": 4.179992634,
        "City": "Iwo",
        "Postcode": "",
        "Country": "Nigeria",
        "Address": ""
      }
    },
    {
      "SelectedOption": null,
      "Duration": 3,
      "PossibleStartDays": [
        5,
        10,
        3,
        1,
        17
      ],
      "SkillsRequested": [
        "SQL Server on Linux"
      ],
      "RequestLocation": {
        "Latitude": -12.74998533,
        "Longitude": 15.76000932,
        "City": "Huambo",
        "Postcode": "",
        "Country": "Angola",
        "Address": ""
      }
    },
    {
      "SelectedOption": null,
      "Duration": 3,
      "PossibleStartDays": [
        28,
        10,
        14,
        13,
        3
      ],
      "SkillsRequested": [
        "Windows Server"
      ],
      "RequestLocation": {
        "Latitude": 62.44201418,
        "Longitude": -114.3969814,
        "City": "Yellowknife",
        "Postcode": "",
        "Country": "Canada",
        "Address": ""
      }
    },
    {
      "SelectedOption": null,
      "Duration": 3,
      "PossibleStartDays": [
        15,
        18,
        26,
        0,
        13
      ],
      "SkillsRequested": [
        "Reporting Services"
      ],
      "RequestLocation": {
        "Latitude": 26.25039899,
        "Longitude": 105.9300093,
        "City": "Anshun",
        "Postcode": "",
        "Country": "China",
        "Address": ""
      }
    },
    {
      "SelectedOption": null,
      "Duration": 3,
      "PossibleStartDays": [
        29,
        23,
        5,
        28,
        0
      ],
      "SkillsRequested": [
        "C# Development"
      ],
      "RequestLocation": {
        "Latitude": 44.16230308,
        "Longitude": 133.2823449,
        "City": "Arsenyev",
        "Postcode": "",
        "Country": "Russia",
        "Address": ""
      }
    },
    {
      "SelectedOption": null,
      "Duration": 2,
      "PossibleStartDays": [
        12,
        10,
        11,
        17,
        2
      ],
      "SkillsRequested": [
        "Azure Machine Learning"
      ],
      "RequestLocation": {
        "Latitude": 63.31800722,
        "Longitude": 18.71667639,
        "City": "Örnsköldsvik",
        "Postcode": "",
        "Country": "Sweden",
        "Address": ""
      }
    },
    {
      "SelectedOption": null,
      "Duration": 1,
      "PossibleStartDays": [
        17,
        10,
        6,
        16,
        5
      ],
      "SkillsRequested": [
        "Windows Server"
      ],
      "RequestLocation": {
        "Latitude": -32.47999551,
        "Longitude": -58.23999577,
        "City": "Concepcion del Uruguay",
        "Postcode": "",
        "Country": "Argentina",
        "Address": ""
      }
    },
    {
      "SelectedOption": null,
      "Duration": 4,
      "PossibleStartDays": [
        19,
        22,
        13,
        23,
        0
      ],
      "SkillsRequested": [
        "Windows Server"
      ],
      "RequestLocation": {
        "Latitude": 54.59869448,
        "Longitude": 52.44872595,
        "City": "Leninogorsk",
        "Postcode": "",
        "Country": "Russia",
        "Address": ""
      }
    },
    {
      "SelectedOption": null,
      "Duration": 2,
      "PossibleStartDays": [
        16,
        2,
        24,
        15,
        8
      ],
      "SkillsRequested": [
        "Integration Services"
      ],
      "RequestLocation": {
        "Latitude": 0.059982116,
        "Longitude": 37.64001745,
        "City": "Meru",
        "Postcode": "",
        "Country": "Kenya",
        "Address": ""
      }
    },
    {
      "SelectedOption": null,
      "Duration": 2,
      "PossibleStartDays": [
        19,
        1,
        22,
        9,
        20
      ],
      "SkillsRequested": [
        "C# Development"
      ],
      "RequestLocation": {
        "Latitude": 32.28329707,
        "Longitude": 36.23329852,
        "City": "Al Mafraq",
        "Postcode": "",
        "Country": "Jordan",
        "Address": ""
      }
    },
    {
      "SelectedOption": null,
      "Duration": 3,
      "PossibleStartDays": [
        17,
        12,
        3,
        14,
        0
      ],
      "SkillsRequested": [
        "Integration Services"
      ],
      "RequestLocation": {
        "Latitude": 26.6337606,
        "Longitude": 92.80000972,
        "City": "Tezpur",
        "Postcode": "",
        "Country": "India",
        "Address": ""
      }
    },
    {
      "SelectedOption": null,
      "Duration": 4,
      "PossibleStartDays": [
        19,
        11,
        21,
        2,
        26
      ],
      "SkillsRequested": [
        "C# Development"
      ],
      "RequestLocation": {
        "Latitude": 42.68262596,
        "Longitude": -89.02157943,
        "City": "Janesville",
        "Postcode": "",
        "Country": "United States of America",
        "Address": ""
      }
    },
    {
      "SelectedOption": null,
      "Duration": 4,
      "PossibleStartDays": [
        0,
        6,
        24,
        9,
        2
      ],
      "SkillsRequested": [
        "C# Development"
      ],
      "RequestLocation": {
        "Latitude": 28.08331036,
        "Longitude": -80.60832035,
        "City": "Melbourne",
        "Postcode": "",
        "Country": "United States of America",
        "Address": ""
      }
    },
    {
      "SelectedOption": null,
      "Duration": 3,
      "PossibleStartDays": [
        4,
        3,
        10,
        17,
        0
      ],
      "SkillsRequested": [
        "SQL Server on Linux"
      ],
      "RequestLocation": {
        "Latitude": -34.66001748,
        "Longitude": -59.44002588,
        "City": "Mercedes",
        "Postcode": "",
        "Country": "Argentina",
        "Address": ""
      }
    },
    {
      "SelectedOption": null,
      "Duration": 2,
      "PossibleStartDays": [
        18,
        10,
        1,
        16,
        8
      ],
      "SkillsRequested": [
        "SQL Server Development"
      ],
      "RequestLocation": {
        "Latitude": 37.75122154,
        "Longitude": 27.41025427,
        "City": "Soke",
        "Postcode": "",
        "Country": "Turkey",
        "Address": ""
      }
    },
    {
      "SelectedOption": null,
      "Duration": 4,
      "PossibleStartDays": [
        27,
        23,
        4,
        17,
        19
      ],
      "SkillsRequested": [
        "Integration Services"
      ],
      "RequestLocation": {
        "Latitude": -15.7895414,
        "Longitude": 20.36003861,
        "City": "Mavinga",
        "Postcode": "",
        "Country": "Angola",
        "Address": ""
      }
    },
    {
      "SelectedOption": null,
      "Duration": 4,
      "PossibleStartDays": [
        2,
        11,
        10,
        23,
        1
      ],
      "SkillsRequested": [
        "Azure Machine Learning"
      ],
      "RequestLocation": {
        "Latitude": 35.02182741,
        "Longitude": 50.33143917,
        "City": "Saveh",
        "Postcode": "",
        "Country": "Iran",
        "Address": ""
      }
    },
    {
      "SelectedOption": null,
      "Duration": 3,
      "PossibleStartDays": [
        20,
        24,
        4,
        2,
        10
      ],
      "SkillsRequested": [
        "SQL Server Admin"
      ],
      "RequestLocation": {
        "Latitude": 6.360372741,
        "Longitude": 2.089991006,
        "City": "Ouidah",
        "Postcode": "",
        "Country": "Benin",
        "Address": ""
      }
    },
    {
      "SelectedOption": null,
      "Duration": 2,
      "PossibleStartDays": [
        23,
        15,
        24,
        11,
        29
      ],
      "SkillsRequested": [
        "Azure Machine Learning"
      ],
      "RequestLocation": {
        "Latitude": 20.95000205,
        "Longitude": 101.4166986,
        "City": "Louang Namtha",
        "Postcode": "",
        "Country": "Laos",
        "Address": ""
      }
    },
    {
      "SelectedOption": null,
      "Duration": 3,
      "PossibleStartDays": [
        21,
        4,
        28,
        26,
        9
      ],
      "SkillsRequested": [
        "Azure Machine Learning"
      ],
      "RequestLocation": {
        "Latitude": 28.30042889,
        "Longitude": 30.71000118,
        "City": "Samalut",
        "Postcode": "",
        "Country": "Egypt",
        "Address": ""
      }
    },
    {
      "SelectedOption": null,
      "Duration": 2,
      "PossibleStartDays": [
        23,
        27,
        15,
        12,
        9
      ],
      "SkillsRequested": [
        "SQL Server on Linux"
      ],
      "RequestLocation": {
        "Latitude": -39.37001422,
        "Longitude": -72.62999597,
        "City": "Loncoche",
        "Postcode": "",
        "Country": "Chile",
        "Address": ""
      }
    },
    {
      "SelectedOption": null,
      "Duration": 2,
      "PossibleStartDays": [
        18,
        2,
        26,
        15,
        16
      ],
      "SkillsRequested": [
        "C# Development"
      ],
      "RequestLocation": {
        "Latitude": 28.60002301,
        "Longitude": 77.19998002,
        "City": "New Delhi",
        "Postcode": "",
        "Country": "India",
        "Address": ""
      }
    },
    {
      "SelectedOption": null,
      "Duration": 2,
      "PossibleStartDays": [
        26,
        10,
        18,
        12,
        3
      ],
      "SkillsRequested": [
        "Reporting Services"
      ],
      "RequestLocation": {
        "Latitude": -5.490000005,
        "Longitude": 143.7180037,
        "City": "Wabag",
        "Postcode": "",
        "Country": "Papua New Guinea",
        "Address": ""
      }
    },
    {
      "SelectedOption": null,
      "Duration": 3,
      "PossibleStartDays": [
        11,
        26,
        23,
        6,
        5
      ],
      "SkillsRequested": [
        "SQL Server on Linux"
      ],
      "RequestLocation": {
        "Latitude": 42.03330302,
        "Longitude": 19.88330448,
        "City": "Puke",
        "Postcode": "",
        "Country": "Albania",
        "Address": ""
      }
    },
    {
      "SelectedOption": null,
      "Duration": 3,
      "PossibleStartDays": [
        12,
        14,
        0,
        13,
        7
      ],
      "SkillsRequested": [
        "Windows Server"
      ],
      "RequestLocation": {
        "Latitude": 34.4361784,
        "Longitude": 104.0305904,
        "City": "Minxian",
        "Postcode": "",
        "Country": "China",
        "Address": ""
      }
    },
    {
      "SelectedOption": null,
      "Duration": 1,
      "PossibleStartDays": [
        15,
        3,
        7,
        27,
        5
      ],
      "SkillsRequested": [
        "SQL Server on Linux"
      ],
      "RequestLocation": {
        "Latitude": -20.28327228,
        "Longitude": 44.28333288,
        "City": "Morondava",
        "Postcode": "",
        "Country": "Madagascar",
        "Address": ""
      }
    },
    {
      "SelectedOption": null,
      "Duration": 3,
      "PossibleStartDays": [
        18,
        25,
        8,
        11,
        24
      ],
      "SkillsRequested": [
        "Windows Server"
      ],
      "RequestLocation": {
        "Latitude": -14.51861123,
        "Longitude": 40.71502356,
        "City": "Nacala",
        "Postcode": "",
        "Country": "Mozambique",
        "Address": ""
      }
    },
    {
      "SelectedOption": null,
      "Duration": 2,
      "PossibleStartDays": [
        4,
        13,
        15,
        6,
        20
      ],
      "SkillsRequested": [
        "Data Factory"
      ],
      "RequestLocation": {
        "Latitude": 52.95269676,
        "Longitude": 63.1300378,
        "City": "Rudny",
        "Postcode": "",
        "Country": "Kazakhstan",
        "Address": ""
      }
    },
    {
      "SelectedOption": null,
      "Duration": 2,
      "PossibleStartDays": [
        7,
        3,
        26,
        19,
        8
      ],
      "SkillsRequested": [
        "Integration Services"
      ],
      "RequestLocation": {
        "Latitude": 52.19297569,
        "Longitude": 61.23992061,
        "City": "Zhetiqara",
        "Postcode": "",
        "Country": "Kazakhstan",
        "Address": ""
      }
    },
    {
      "SelectedOption": null,
      "Duration": 3,
      "PossibleStartDays": [
        14,
        17,
        16,
        22,
        2
      ],
      "SkillsRequested": [
        "SQL Server Admin"
      ],
      "RequestLocation": {
        "Latitude": 11.1799752,
        "Longitude": -4.289981325,
        "City": "Bobo Dioulasso",
        "Postcode": "",
        "Country": "Burkina Faso",
        "Address": ""
      }
    },
    {
      "SelectedOption": null,
      "Duration": 1,
      "PossibleStartDays": [
        29,
        4,
        16,
        21,
        27
      ],
      "SkillsRequested": [
        "SQL Server Development"
      ],
      "RequestLocation": {
        "Latitude": 35.07998924,
        "Longitude": 109.0299751,
        "City": "Tongchuan",
        "Postcode": "",
        "Country": "China",
        "Address": ""
      }
    },
    {
      "SelectedOption": null,
      "Duration": 3,
      "PossibleStartDays": [
        0,
        2,
        22,
        21,
        25
      ],
      "SkillsRequested": [
        "C# Development"
      ],
      "RequestLocation": {
        "Latitude": 58.10000531,
        "Longitude": -68.39999577,
        "City": "Kuujjuaq",
        "Postcode": "",
        "Country": "Canada",
        "Address": ""
      }
    },
    {
      "SelectedOption": null,
      "Duration": 3,
      "PossibleStartDays": [
        28,
        14,
        21,
        17,
        10
      ],
      "SkillsRequested": [
        "Windows Server"
      ],
      "RequestLocation": {
        "Latitude": 71.43332583,
        "Longitude": 136.0666194,
        "City": "Nizhneyansk",
        "Postcode": "",
        "Country": "Russia",
        "Address": ""
      }
    },
    {
      "SelectedOption": null,
      "Duration": 4,
      "PossibleStartDays": [
        26,
        6,
        21,
        22,
        10
      ],
      "SkillsRequested": [
        "SQL Server Development"
      ],
      "RequestLocation": {
        "Latitude": 58.35151451,
        "Longitude": 60.0515177,
        "City": "Krasnouralsk",
        "Postcode": "",
        "Country": "Russia",
        "Address": ""
      }
    },
    {
      "SelectedOption": null,
      "Duration": 4,
      "PossibleStartDays": [
        6,
        15,
        25,
        23,
        19
      ],
      "SkillsRequested": [
        "Windows Server"
      ],
      "RequestLocation": {
        "Latitude": 54.77193972,
        "Longitude": -111.964701,
        "City": "Lac La Biche",
        "Postcode": "",
        "Country": "Canada",
        "Address": ""
      }
    },
    {
      "SelectedOption": null,
      "Duration": 2,
      "PossibleStartDays": [
        4,
        7,
        16,
        12,
        1
      ],
      "SkillsRequested": [
        "Reporting Services"
      ],
      "RequestLocation": {
        "Latitude": -2.379610576,
        "Longitude": 40.43002803,
        "City": "Witu",
        "Postcode": "",
        "Country": "Kenya",
        "Address": ""
      }
    },
    {
      "SelectedOption": null,
      "Duration": 4,
      "PossibleStartDays": [
        29,
        24,
        7,
        23,
        15
      ],
      "SkillsRequested": [
        "Azure Machine Learning"
      ],
      "RequestLocation": {
        "Latitude": 43.59001243,
        "Longitude": 39.72996741,
        "City": "Sochi",
        "Postcode": "",
        "Country": "Russia",
        "Address": ""
      }
    },
    {
      "SelectedOption": null,
      "Duration": 2,
      "PossibleStartDays": [
        0,
        24,
        12,
        14,
        22
      ],
      "SkillsRequested": [
        "Integration Services"
      ],
      "RequestLocation": {
        "Latitude": 13.62998069,
        "Longitude": 25.35001827,
        "City": "El Fasher",
        "Postcode": "",
        "Country": "Sudan",
        "Address": ""
      }
    },
    {
      "SelectedOption": null,
      "Duration": 3,
      "PossibleStartDays": [
        22,
        14,
        9,
        24,
        29
      ],
      "SkillsRequested": [
        "Integration Services"
      ],
      "RequestLocation": {
        "Latitude": -17.41001097,
        "Longitude": -66.16997685,
        "City": "Cochabamba",
        "Postcode": "",
        "Country": "Bolivia",
        "Address": ""
      }
    },
    {
      "SelectedOption": null,
      "Duration": 3,
      "PossibleStartDays": [
        0,
        13,
        2,
        7,
        3
      ],
      "SkillsRequested": [
        "SQL Server on Linux"
      ],
      "RequestLocation": {
        "Latitude": 28.35000004,
        "Longitude": 82.18330255,
        "City": "Salyan",
        "Postcode": "",
        "Country": "Nepal",
        "Address": ""
      }
    },
    {
      "SelectedOption": null,
      "Duration": 1,
      "PossibleStartDays": [
        23,
        15,
        21,
        11,
        24
      ],
      "SkillsRequested": [
        "Azure Machine Learning"
      ],
      "RequestLocation": {
        "Latitude": 38.48290814,
        "Longitude": 47.06290482,
        "City": "Ahar",
        "Postcode": "",
        "Country": "Iran",
        "Address": ""
      }
    },
    {
      "SelectedOption": null,
      "Duration": 3,
      "PossibleStartDays": [
        25,
        9,
        3,
        5,
        12
      ],
      "SkillsRequested": [
        "Reporting Services"
      ],
      "RequestLocation": {
        "Latitude": 42.27001548,
        "Longitude": 118.9499898,
        "City": "Chifeng",
        "Postcode": "",
        "Country": "China",
        "Address": ""
      }
    },
    {
      "SelectedOption": null,
      "Duration": 3,
      "PossibleStartDays": [
        9,
        8,
        12,
        0,
        29
      ],
      "SkillsRequested": [
        "Azure Machine Learning"
      ],
      "RequestLocation": {
        "Latitude": 22.78753542,
        "Longitude": 86.19751868,
        "City": "Jamshedpur",
        "Postcode": "",
        "Country": "India",
        "Address": ""
      }
    },
    {
      "SelectedOption": null,
      "Duration": 1,
      "PossibleStartDays": [
        14,
        28,
        21,
        3,
        23
      ],
      "SkillsRequested": [
        "Azure Machine Learning"
      ],
      "RequestLocation": {
        "Latitude": -7.810028464,
        "Longitude": -78.04994938,
        "City": "Huamachuco",
        "Postcode": "",
        "Country": "Peru",
        "Address": ""
      }
    },
    {
      "SelectedOption": null,
      "Duration": 3,
      "PossibleStartDays": [
        17,
        28,
        3,
        11,
        4
      ],
      "SkillsRequested": [
        "SQL Server on Linux"
      ],
      "RequestLocation": {
        "Latitude": 41.52998313,
        "Longitude": -88.10667403,
        "City": "Joliet",
        "Postcode": "",
        "Country": "United States of America",
        "Address": ""
      }
    },
    {
      "SelectedOption": null,
      "Duration": 4,
      "PossibleStartDays": [
        16,
        7,
        22,
        8,
        25
      ],
      "SkillsRequested": [
        "Integration Services"
      ],
      "RequestLocation": {
        "Latitude": 14.82957155,
        "Longitude": 120.2827767,
        "City": "Olongapo",
        "Postcode": "",
        "Country": "Philippines",
        "Address": ""
      }
    },
    {
      "SelectedOption": null,
      "Duration": 4,
      "PossibleStartDays": [
        0,
        11,
        23,
        24,
        26
      ],
      "SkillsRequested": [
        "C# Development"
      ],
      "RequestLocation": {
        "Latitude": -32.88333006,
        "Longitude": -68.81661117,
        "City": "Mendoza",
        "Postcode": "",
        "Country": "Argentina",
        "Address": ""
      }
    },
    {
      "SelectedOption": null,
      "Duration": 4,
      "PossibleStartDays": [
        17,
        9,
        26,
        29,
        4
      ],
      "SkillsRequested": [
        "SQL Server Admin"
      ],
      "RequestLocation": {
        "Latitude": 22.71958091,
        "Longitude": -80.90579574,
        "City": "Colon",
        "Postcode": "",
        "Country": "Cuba",
        "Address": ""
      }
    },
    {
      "SelectedOption": null,
      "Duration": 4,
      "PossibleStartDays": [
        4,
        17,
        13,
        1,
        21
      ],
      "SkillsRequested": [
        "Data Factory"
      ],
      "RequestLocation": {
        "Latitude": 42.60999473,
        "Longitude": 23.02271846,
        "City": "Pernik",
        "Postcode": "",
        "Country": "Bulgaria",
        "Address": ""
      }
    },
    {
      "SelectedOption": null,
      "Duration": 2,
      "PossibleStartDays": [
        13,
        22,
        10,
        28,
        19
      ],
      "SkillsRequested": [
        "Azure Machine Learning"
      ],
      "RequestLocation": {
        "Latitude": 10.2703408,
        "Longitude": 13.2700321,
        "City": "Mubi",
        "Postcode": "",
        "Country": "Nigeria",
        "Address": ""
      }
    },
    {
      "SelectedOption": null,
      "Duration": 4,
      "PossibleStartDays": [
        11,
        27,
        2,
        21,
        5
      ],
      "SkillsRequested": [
        "SQL Server Development"
      ],
      "RequestLocation": {
        "Latitude": 12.11309654,
        "Longitude": 15.04914831,
        "City": "Ndjamena",
        "Postcode": "",
        "Country": "Chad",
        "Address": ""
      }
    },
    {
      "SelectedOption": null,
      "Duration": 4,
      "PossibleStartDays": [
        18,
        23,
        11,
        7,
        17
      ],
      "SkillsRequested": [
        "Integration Services"
      ],
      "RequestLocation": {
        "Latitude": 7.121747456,
        "Longitude": -77.75640141,
        "City": "Jurado",
        "Postcode": "",
        "Country": "Colombia",
        "Address": ""
      }
    },
    {
      "SelectedOption": null,
      "Duration": 4,
      "PossibleStartDays": [
        18,
        0,
        28,
        19,
        11
      ],
      "SkillsRequested": [
        "Windows Server"
      ],
      "RequestLocation": {
        "Latitude": 56.08351341,
        "Longitude": 54.26308549,
        "City": "Neftekamsk",
        "Postcode": "",
        "Country": "Russia",
        "Address": ""
      }
    },
    {
      "SelectedOption": null,
      "Duration": 1,
      "PossibleStartDays": [
        0,
        26,
        21,
        18,
        20
      ],
      "SkillsRequested": [
        "Data Factory"
      ],
      "RequestLocation": {
        "Latitude": 8.650439676,
        "Longitude": 16.8500203,
        "City": "Doba",
        "Postcode": "",
        "Country": "Chad",
        "Address": ""
      }
    },
    {
      "SelectedOption": null,
      "Duration": 4,
      "PossibleStartDays": [
        17,
        7,
        9,
        26,
        8
      ],
      "SkillsRequested": [
        "SQL Server Admin"
      ],
      "RequestLocation": {
        "Latitude": 27.00464235,
        "Longitude": 49.64600297,
        "City": "Al Jubayl",
        "Postcode": "",
        "Country": "Saudi Arabia",
        "Address": ""
      }
    },
    {
      "SelectedOption": null,
      "Duration": 3,
      "PossibleStartDays": [
        23,
        25,
        5,
        2,
        14
      ],
      "SkillsRequested": [
        "SQL Server Development"
      ],
      "RequestLocation": {
        "Latitude": 59.08400209,
        "Longitude": 159.9500195,
        "City": "Palana",
        "Postcode": "",
        "Country": "Russia",
        "Address": ""
      }
    },
    {
      "SelectedOption": null,
      "Duration": 4,
      "PossibleStartDays": [
        11,
        8,
        5,
        21,
        15
      ],
      "SkillsRequested": [
        "Windows Server"
      ],
      "RequestLocation": {
        "Latitude": 18.46668805,
        "Longitude": -77.91667586,
        "City": "Montego Bay",
        "Postcode": "",
        "Country": "Jamaica",
        "Address": ""
      }
    },
    {
      "SelectedOption": null,
      "Duration": 4,
      "PossibleStartDays": [
        4,
        28,
        17,
        23,
        25
      ],
      "SkillsRequested": [
        "Windows Server"
      ],
      "RequestLocation": {
        "Latitude": 67.60908897,
        "Longitude": 33.66873531,
        "City": "Kirovsk",
        "Postcode": "",
        "Country": "Russia",
        "Address": ""
      }
    },
    {
      "SelectedOption": null,
      "Duration": 2,
      "PossibleStartDays": [
        16,
        14,
        11,
        9,
        5
      ],
      "SkillsRequested": [
        "Windows Server"
      ],
      "RequestLocation": {
        "Latitude": 50.414350399999996,
        "Longitude": 36.89437821,
        "City": "Shebekino",
        "Postcode": "",
        "Country": "Russia",
        "Address": ""
      }
    },
    {
      "SelectedOption": null,
      "Duration": 3,
      "PossibleStartDays": [
        1,
        10,
        15,
        0,
        6
      ],
      "SkillsRequested": [
        "Data Factory"
      ],
      "RequestLocation": {
        "Latitude": 8.490010192,
        "Longitude": 4.549995889,
        "City": "Ilorin",
        "Postcode": "",
        "Country": "Nigeria",
        "Address": ""
      }
    },
    {
      "SelectedOption": null,
      "Duration": 2,
      "PossibleStartDays": [
        17,
        25,
        21,
        13,
        16
      ],
      "SkillsRequested": [
        "Reporting Services"
      ],
      "RequestLocation": {
        "Latitude": 7.390387389,
        "Longitude": -72.66001998,
        "City": "Pamplona",
        "Postcode": "",
        "Country": "Colombia",
        "Address": ""
      }
    },
    {
      "SelectedOption": null,
      "Duration": 3,
      "PossibleStartDays": [
        5,
        24,
        1,
        9,
        21
      ],
      "SkillsRequested": [
        "Reporting Services"
      ],
      "RequestLocation": {
        "Latitude": -28.2900187,
        "Longitude": -52.80004358,
        "City": "Carazinho",
        "Postcode": "",
        "Country": "Brazil",
        "Address": ""
      }
    },
    {
      "SelectedOption": null,
      "Duration": 4,
      "PossibleStartDays": [
        23,
        0,
        28,
        24,
        29
      ],
      "SkillsRequested": [
        "SQL Server on Linux"
      ],
      "RequestLocation": {
        "Latitude": -11.9,
        "Longitude": 33.6,
        "City": "Mzimba",
        "Postcode": "",
        "Country": "Malawi",
        "Address": ""
      }
    },
    {
      "SelectedOption": null,
      "Duration": 1,
      "PossibleStartDays": [
        19,
        28,
        18,
        27,
        10
      ],
      "SkillsRequested": [
        "C# Development"
      ],
      "RequestLocation": {
        "Latitude": 41.6561253,
        "Longitude": -70.94469833,
        "City": "New Bedford",
        "Postcode": "",
        "Country": "United States of America",
        "Address": ""
      }
    },
    {
      "SelectedOption": null,
      "Duration": 3,
      "PossibleStartDays": [
        8,
        14,
        25,
        18,
        2
      ],
      "SkillsRequested": [
        "SQL Server Admin"
      ],
      "RequestLocation": {
        "Latitude": 31.52999921,
        "Longitude": 34.44501868,
        "City": "Gaza",
        "Postcode": "",
        "Country": "Palestine",
        "Address": ""
      }
    },
    {
      "SelectedOption": null,
      "Duration": 4,
      "PossibleStartDays": [
        19,
        0,
        10,
        23,
        9
      ],
      "SkillsRequested": [
        "SQL Server Development"
      ],
      "RequestLocation": {
        "Latitude": 42.35039817,
        "Longitude": -3.67996688,
        "City": "Burgos",
        "Postcode": "",
        "Country": "Spain",
        "Address": ""
      }
    },
    {
      "SelectedOption": null,
      "Duration": 3,
      "PossibleStartDays": [
        14,
        9,
        17,
        8,
        22
      ],
      "SkillsRequested": [
        "Reporting Services"
      ],
      "RequestLocation": {
        "Latitude": 8.96801719,
        "Longitude": -79.53303715,
        "City": "Panama City",
        "Postcode": "",
        "Country": "Panama",
        "Address": ""
      }
    },
    {
      "SelectedOption": null,
      "Duration": 3,
      "PossibleStartDays": [
        24,
        28,
        26,
        19,
        14
      ],
      "SkillsRequested": [
        "Integration Services"
      ],
      "RequestLocation": {
        "Latitude": 49.57403994,
        "Longitude": 34.57028235,
        "City": "Poltava",
        "Postcode": "",
        "Country": "Ukraine",
        "Address": ""
      }
    },
    {
      "SelectedOption": null,
      "Duration": 4,
      "PossibleStartDays": [
        5,
        28,
        1,
        6,
        29
      ],
      "SkillsRequested": [
        "Integration Services"
      ],
      "RequestLocation": {
        "Latitude": 47.70600309,
        "Longitude": 8.632998523,
        "City": "Schaffhausen",
        "Postcode": "",
        "Country": "Switzerland",
        "Address": ""
      }
    },
    {
      "SelectedOption": null,
      "Duration": 4,
      "PossibleStartDays": [
        6,
        22,
        5,
        29,
        25
      ],
      "SkillsRequested": [
        "Azure Machine Learning"
      ],
      "RequestLocation": {
        "Latitude": -4.209628073,
        "Longitude": 33.18003129,
        "City": "Nzega",
        "Postcode": "",
        "Country": "Tanzania",
        "Address": ""
      }
    },
    {
      "SelectedOption": null,
      "Duration": 1,
      "PossibleStartDays": [
        8,
        27,
        13,
        1,
        29
      ],
      "SkillsRequested": [
        "SQL Server on Linux"
      ],
      "RequestLocation": {
        "Latitude": 12.1833333,
        "Longitude": -4.0833333,
        "City": "Solenzo",
        "Postcode": "",
        "Country": "Burkina Faso",
        "Address": ""
      }
    },
    {
      "SelectedOption": null,
      "Duration": 2,
      "PossibleStartDays": [
        18,
        5,
        23,
        3,
        1
      ],
      "SkillsRequested": [
        "C# Development"
      ],
      "RequestLocation": {
        "Latitude": 9.58999473,
        "Longitude": 41.86001827,
        "City": "Dire Dawa",
        "Postcode": "",
        "Country": "Ethiopia",
        "Address": ""
      }
    },
    {
      "SelectedOption": null,
      "Duration": 1,
      "PossibleStartDays": [
        5,
        23,
        17,
        11,
        20
      ],
      "SkillsRequested": [
        "Azure Machine Learning"
      ],
      "RequestLocation": {
        "Latitude": 51.10306805,
        "Longitude": 114.5228182,
        "City": "Aginskoye",
        "Postcode": "",
        "Country": "Russia",
        "Address": ""
      }
    },
    {
      "SelectedOption": null,
      "Duration": 2,
      "PossibleStartDays": [
        14,
        22,
        2,
        29,
        17
      ],
      "SkillsRequested": [
        "C# Development"
      ],
      "RequestLocation": {
        "Latitude": 57.01002016,
        "Longitude": 41.00999263,
        "City": "Ivanovo",
        "Postcode": "",
        "Country": "Russia",
        "Address": ""
      }
    },
    {
      "SelectedOption": null,
      "Duration": 4,
      "PossibleStartDays": [
        23,
        28,
        10,
        17,
        9
      ],
      "SkillsRequested": [
        "Reporting Services"
      ],
      "RequestLocation": {
        "Latitude": 3.850009175,
        "Longitude": -54.23328943,
        "City": "Cottica",
        "Postcode": "",
        "Country": "Suriname",
        "Address": ""
      }
    },
    {
      "SelectedOption": null,
      "Duration": 4,
      "PossibleStartDays": [
        18,
        14,
        23,
        4,
        20
      ],
      "SkillsRequested": [
        "Azure Machine Learning"
      ],
      "RequestLocation": {
        "Latitude": 48.06658673,
        "Longitude": 114.5060233,
        "City": "Choybalsan",
        "Postcode": "",
        "Country": "Mongolia",
        "Address": ""
      }
    },
    {
      "SelectedOption": null,
      "Duration": 4,
      "PossibleStartDays": [
        9,
        23,
        1,
        15,
        24
      ],
      "SkillsRequested": [
        "SQL Server Admin"
      ],
      "RequestLocation": {
        "Latitude": -36.6200012,
        "Longitude": -64.29998763,
        "City": "Santa Rosa",
        "Postcode": "",
        "Country": "Argentina",
        "Address": ""
      }
    },
    {
      "SelectedOption": null,
      "Duration": 2,
      "PossibleStartDays": [
        27,
        17,
        7,
        11,
        29
      ],
      "SkillsRequested": [
        "SQL Server Development"
      ],
      "RequestLocation": {
        "Latitude": 48.93475079,
        "Longitude": 24.70938554,
        "City": "Ivano-Frankivsk",
        "Postcode": "",
        "Country": "Ukraine",
        "Address": ""
      }
    },
    {
      "SelectedOption": null,
      "Duration": 3,
      "PossibleStartDays": [
        10,
        3,
        24,
        4,
        16
      ],
      "SkillsRequested": [
        "SQL Server Admin"
      ],
      "RequestLocation": {
        "Latitude": 47.8503467,
        "Longitude": 12.13330562,
        "City": "Rosenheim",
        "Postcode": "",
        "Country": "Germany",
        "Address": ""
      }
    },
    {
      "SelectedOption": null,
      "Duration": 2,
      "PossibleStartDays": [
        22,
        5,
        24,
        29,
        11
      ],
      "SkillsRequested": [
        "Reporting Services"
      ],
      "RequestLocation": {
        "Latitude": 43.24998151,
        "Longitude": -79.82999577,
        "City": "Hamilton",
        "Postcode": "",
        "Country": "Canada",
        "Address": ""
      }
    },
    {
      "SelectedOption": null,
      "Duration": 4,
      "PossibleStartDays": [
        28,
        7,
        3,
        22,
        5
      ],
      "SkillsRequested": [
        "SQL Server Admin"
      ],
      "RequestLocation": {
        "Latitude": 27.33612083,
        "Longitude": -82.53078699,
        "City": "Sarasota",
        "Postcode": "",
        "Country": "United States of America",
        "Address": ""
      }
    },
    {
      "SelectedOption": null,
      "Duration": 4,
      "PossibleStartDays": [
        12,
        11,
        5,
        10,
        17
      ],
      "SkillsRequested": [
        "C# Development"
      ],
      "RequestLocation": {
        "Latitude": 8.830377013,
        "Longitude": 125.1299743,
        "City": "Gingoog",
        "Postcode": "",
        "Country": "Philippines",
        "Address": ""
      }
    },
    {
      "SelectedOption": null,
      "Duration": 1,
      "PossibleStartDays": [
        12,
        2,
        10,
        19,
        7
      ],
      "SkillsRequested": [
        "SQL Server on Linux"
      ],
      "RequestLocation": {
        "Latitude": 30.25702781,
        "Longitude": 19.20000606,
        "City": "El Agheila",
        "Postcode": "",
        "Country": "Libya",
        "Address": ""
      }
    },
    {
      "SelectedOption": null,
      "Duration": 4,
      "PossibleStartDays": [
        25,
        22,
        1,
        2,
        5
      ],
      "SkillsRequested": [
        "Data Factory"
      ],
      "RequestLocation": {
        "Latitude": 48.99973391,
        "Longitude": 21.23936479,
        "City": "Presov",
        "Postcode": "",
        "Country": "Slovakia",
        "Address": ""
      }
    },
    {
      "SelectedOption": null,
      "Duration": 3,
      "PossibleStartDays": [
        6,
        12,
        21,
        17,
        18
      ],
      "SkillsRequested": [
        "Windows Server"
      ],
      "RequestLocation": {
        "Latitude": 46.99899914,
        "Longitude": 6.922998615,
        "City": "Neuchatel",
        "Postcode": "",
        "Country": "Switzerland",
        "Address": ""
      }
    },
    {
      "SelectedOption": null,
      "Duration": 4,
      "PossibleStartDays": [
        10,
        22,
        4,
        7,
        25
      ],
      "SkillsRequested": [
        "C# Development"
      ],
      "RequestLocation": {
        "Latitude": 30.46666512,
        "Longitude": 31.18333563,
        "City": "Benha",
        "Postcode": "",
        "Country": "Egypt",
        "Address": ""
      }
    },
    {
      "SelectedOption": null,
      "Duration": 1,
      "PossibleStartDays": [
        26,
        17,
        9,
        12,
        24
      ],
      "SkillsRequested": [
        "Integration Services"
      ],
      "RequestLocation": {
        "Latitude": -15.43333576,
        "Longitude": 49.73333614,
        "City": "Maroantsetra",
        "Postcode": "",
        "Country": "Madagascar",
        "Address": ""
      }
    },
    {
      "SelectedOption": null,
      "Duration": 1,
      "PossibleStartDays": [
        27,
        12,
        28,
        17,
        11
      ],
      "SkillsRequested": [
        "Reporting Services"
      ],
      "RequestLocation": {
        "Latitude": 43.78000083,
        "Longitude": 11.25000036,
        "City": "Florence",
        "Postcode": "",
        "Country": "Italy",
        "Address": ""
      }
    },
    {
      "SelectedOption": null,
      "Duration": 1,
      "PossibleStartDays": [
        2,
        11,
        24,
        9,
        23
      ],
      "SkillsRequested": [
        "Data Factory"
      ],
      "RequestLocation": {
        "Latitude": 36.23333409,
        "Longitude": 36.11667656,
        "City": "Antioch",
        "Postcode": "",
        "Country": "Turkey",
        "Address": ""
      }
    },
    {
      "SelectedOption": null,
      "Duration": 1,
      "PossibleStartDays": [
        26,
        4,
        18,
        2,
        29
      ],
      "SkillsRequested": [
        "SQL Server Development"
      ],
      "RequestLocation": {
        "Latitude": -62.49950682,
        "Longitude": -59.68331852,
        "City": "Capitan Arturo Prat Station",
        "Postcode": "",
        "Country": "Antarctica",
        "Address": ""
      }
    },
    {
      "SelectedOption": null,
      "Duration": 3,
      "PossibleStartDays": [
        5,
        18,
        7,
        12,
        28
      ],
      "SkillsRequested": [
        "C# Development"
      ],
      "RequestLocation": {
        "Latitude": 47.47522748,
        "Longitude": 84.85982255,
        "City": "Zaysan",
        "Postcode": "",
        "Country": "Kazakhstan",
        "Address": ""
      }
    },
    {
      "SelectedOption": null,
      "Duration": 2,
      "PossibleStartDays": [
        24,
        21,
        13,
        11,
        26
      ],
      "SkillsRequested": [
        "Windows Server"
      ],
      "RequestLocation": {
        "Latitude": 57.43368939,
        "Longitude": 10.53329993,
        "City": "Frederikshavn",
        "Postcode": "",
        "Country": "Denmark",
        "Address": ""
      }
    },
    {
      "SelectedOption": null,
      "Duration": 4,
      "PossibleStartDays": [
        27,
        23,
        21,
        25,
        17
      ],
      "SkillsRequested": [
        "Windows Server"
      ],
      "RequestLocation": {
        "Latitude": 56.65270347,
        "Longitude": 23.71280554,
        "City": "Jelgava",
        "Postcode": "",
        "Country": "Latvia",
        "Address": ""
      }
    },
    {
      "SelectedOption": null,
      "Duration": 4,
      "PossibleStartDays": [
        3,
        27,
        28,
        25,
        20
      ],
      "SkillsRequested": [
        "Data Factory"
      ],
      "RequestLocation": {
        "Latitude": 6.615000092,
        "Longitude": 1.715004457,
        "City": "Lokossa",
        "Postcode": "",
        "Country": "Benin",
        "Address": ""
      }
    },
    {
      "SelectedOption": null,
      "Duration": 4,
      "PossibleStartDays": [
        3,
        6,
        17,
        18,
        28
      ],
      "SkillsRequested": [
        "C# Development"
      ],
      "RequestLocation": {
        "Latitude": 39.92191591,
        "Longitude": 69.00146236,
        "City": "Uroteppa",
        "Postcode": "",
        "Country": "Tajikistan",
        "Address": ""
      }
    },
    {
      "SelectedOption": null,
      "Duration": 1,
      "PossibleStartDays": [
        16,
        15,
        1,
        22,
        19
      ],
      "SkillsRequested": [
        "C# Development"
      ],
      "RequestLocation": {
        "Latitude": 59.64293439,
        "Longitude": -151.5482797,
        "City": "Homer",
        "Postcode": "",
        "Country": "United States of America",
        "Address": ""
      }
    },
    {
      "SelectedOption": null,
      "Duration": 2,
      "PossibleStartDays": [
        10,
        5,
        6,
        24,
        23
      ],
      "SkillsRequested": [
        "Integration Services"
      ],
      "RequestLocation": {
        "Latitude": 36.43342084,
        "Longitude": -99.39769027,
        "City": "Woodward",
        "Postcode": "",
        "Country": "United States of America",
        "Address": ""
      }
    },
    {
      "SelectedOption": null,
      "Duration": 3,
      "PossibleStartDays": [
        4,
        0,
        24,
        14,
        11
      ],
      "SkillsRequested": [
        "Azure Machine Learning"
      ],
      "RequestLocation": {
        "Latitude": -37.98291543,
        "Longitude": 176.9999865,
        "City": "Whakatane",
        "Postcode": "",
        "Country": "New Zealand",
        "Address": ""
      }
    },
    {
      "SelectedOption": null,
      "Duration": 2,
      "PossibleStartDays": [
        18,
        27,
        23,
        21,
        20
      ],
      "SkillsRequested": [
        "Azure Machine Learning"
      ],
      "RequestLocation": {
        "Latitude": -22.12000771,
        "Longitude": -51.39000045,
        "City": "Presidente Prudente",
        "Postcode": "",
        "Country": "Brazil",
        "Address": ""
      }
    },
    {
      "SelectedOption": null,
      "Duration": 4,
      "PossibleStartDays": [
        6,
        8,
        1,
        21,
        10
      ],
      "SkillsRequested": [
        "Azure Machine Learning"
      ],
      "RequestLocation": {
        "Latitude": 59.75724265,
        "Longitude": 10.19073686,
        "City": "Drammen",
        "Postcode": "",
        "Country": "Norway",
        "Address": ""
      }
    },
    {
      "SelectedOption": null,
      "Duration": 3,
      "PossibleStartDays": [
        9,
        15,
        14,
        21,
        0
      ],
      "SkillsRequested": [
        "SQL Server on Linux"
      ],
      "RequestLocation": {
        "Latitude": 13.99039797,
        "Longitude": 32.29998165,
        "City": "Ed Dueim",
        "Postcode": "",
        "Country": "Sudan",
        "Address": ""
      }
    },
    {
      "SelectedOption": null,
      "Duration": 3,
      "PossibleStartDays": [
        22,
        14,
        27,
        9,
        3
      ],
      "SkillsRequested": [
        "Integration Services"
      ],
      "RequestLocation": {
        "Latitude": -1.283346742,
        "Longitude": 36.81665686,
        "City": "Nairobi",
        "Postcode": "",
        "Country": "Kenya",
        "Address": ""
      }
    },
    {
      "SelectedOption": null,
      "Duration": 1,
      "PossibleStartDays": [
        4,
        21,
        16,
        6,
        20
      ],
      "SkillsRequested": [
        "Windows Server"
      ],
      "RequestLocation": {
        "Latitude": 73.36900226,
        "Longitude": -56.05981366,
        "City": "Tasiusaq",
        "Postcode": "",
        "Country": "Greenland",
        "Address": ""
      }
    },
    {
      "SelectedOption": null,
      "Duration": 3,
      "PossibleStartDays": [
        0,
        17,
        9,
        16,
        3
      ],
      "SkillsRequested": [
        "Integration Services"
      ],
      "RequestLocation": {
        "Latitude": -33.02998777,
        "Longitude": -71.53998499,
        "City": "Vina del Mar",
        "Postcode": "",
        "Country": "Chile",
        "Address": ""
      }
    },
    {
      "SelectedOption": null,
      "Duration": 4,
      "PossibleStartDays": [
        15,
        2,
        26,
        18,
        7
      ],
      "SkillsRequested": [
        "SQL Server Admin"
      ],
      "RequestLocation": {
        "Latitude": 21.19998374,
        "Longitude": 110.3800219,
        "City": "Zhanjiang",
        "Postcode": "",
        "Country": "China",
        "Address": ""
      }
    },
    {
      "SelectedOption": null,
      "Duration": 2,
      "PossibleStartDays": [
        5,
        1,
        8,
        10,
        3
      ],
      "SkillsRequested": [
        "SQL Server Development"
      ],
      "RequestLocation": {
        "Latitude": -16.17003497,
        "Longitude": -40.70000696,
        "City": "Almenara",
        "Postcode": "",
        "Country": "Brazil",
        "Address": ""
      }
    },
    {
      "SelectedOption": null,
      "Duration": 1,
      "PossibleStartDays": [
        5,
        0,
        7,
        22,
        18
      ],
      "SkillsRequested": [
        "C# Development"
      ],
      "RequestLocation": {
        "Latitude": 17.61309674,
        "Longitude": 121.7268746,
        "City": "Tuguegarao",
        "Postcode": "",
        "Country": "Philippines",
        "Address": ""
      }
    },
    {
      "SelectedOption": null,
      "Duration": 4,
      "PossibleStartDays": [
        0,
        2,
        5,
        1,
        19
      ],
      "SkillsRequested": [
        "SQL Server Development"
      ],
      "RequestLocation": {
        "Latitude": 39.62433718,
        "Longitude": 118.194377,
        "City": "Tangshan",
        "Postcode": "",
        "Country": "China",
        "Address": ""
      }
    },
    {
      "SelectedOption": null,
      "Duration": 3,
      "PossibleStartDays": [
        28,
        1,
        8,
        22,
        5
      ],
      "SkillsRequested": [
        "Windows Server"
      ],
      "RequestLocation": {
        "Latitude": 9.30001243,
        "Longitude": -82.3999681,
        "City": "Almirante",
        "Postcode": "",
        "Country": "Panama",
        "Address": ""
      }
    },
    {
      "SelectedOption": null,
      "Duration": 3,
      "PossibleStartDays": [
        2,
        15,
        14,
        5,
        8
      ],
      "SkillsRequested": [
        "Windows Server"
      ],
      "RequestLocation": {
        "Latitude": 41.05996014,
        "Longitude": 14.33735714,
        "City": "Caserta",
        "Postcode": "",
        "Country": "Italy",
        "Address": ""
      }
    },
    {
      "SelectedOption": null,
      "Duration": 3,
      "PossibleStartDays": [
        26,
        19,
        18,
        7,
        22
      ],
      "SkillsRequested": [
        "SQL Server Development"
      ],
      "RequestLocation": {
        "Latitude": 52.7038489,
        "Longitude": -8.864146567,
        "City": "Shannon",
        "Postcode": "",
        "Country": "Ireland",
        "Address": ""
      }
    },
    {
      "SelectedOption": null,
      "Duration": 4,
      "PossibleStartDays": [
        10,
        29,
        18,
        4,
        1
      ],
      "SkillsRequested": [
        "SQL Server Admin"
      ],
      "RequestLocation": {
        "Latitude": 0.133259297,
        "Longitude": 117.5000008,
        "City": "Bontang",
        "Postcode": "",
        "Country": "Indonesia",
        "Address": ""
      }
    },
    {
      "SelectedOption": null,
      "Duration": 1,
      "PossibleStartDays": [
        11,
        29,
        12,
        2,
        25
      ],
      "SkillsRequested": [
        "C# Development"
      ],
      "RequestLocation": {
        "Latitude": -16.09954832,
        "Longitude": 46.63331864,
        "City": "Marovoay",
        "Postcode": "",
        "Country": "Madagascar",
        "Address": ""
      }
    },
    {
      "SelectedOption": null,
      "Duration": 4,
      "PossibleStartDays": [
        16,
        29,
        19,
        3,
        10
      ],
      "SkillsRequested": [
        "Integration Services"
      ],
      "RequestLocation": {
        "Latitude": 24.9000163,
        "Longitude": 118.5799865,
        "City": "Quanzhou",
        "Postcode": "",
        "Country": "China",
        "Address": ""
      }
    },
    {
      "SelectedOption": null,
      "Duration": 1,
      "PossibleStartDays": [
        18,
        29,
        5,
        1,
        11
      ],
      "SkillsRequested": [
        "Data Factory"
      ],
      "RequestLocation": {
        "Latitude": -8.890014222,
        "Longitude": 33.43004187,
        "City": "Mbeya",
        "Postcode": "",
        "Country": "Tanzania",
        "Address": ""
      }
    },
    {
      "SelectedOption": null,
      "Duration": 3,
      "PossibleStartDays": [
        6,
        11,
        27,
        9,
        1
      ],
      "SkillsRequested": [
        "Integration Services"
      ],
      "RequestLocation": {
        "Latitude": 42.15397605,
        "Longitude": 24.7539823,
        "City": "Plovdiv",
        "Postcode": "",
        "Country": "Bulgaria",
        "Address": ""
      }
    },
    {
      "SelectedOption": null,
      "Duration": 4,
      "PossibleStartDays": [
        9,
        7,
        11,
        10,
        29
      ],
      "SkillsRequested": [
        "Azure Machine Learning"
      ],
      "RequestLocation": {
        "Latitude": 43.21843304,
        "Longitude": -123.3560987,
        "City": "Roseburg",
        "Postcode": "",
        "Country": "United States of America",
        "Address": ""
      }
    },
    {
      "SelectedOption": null,
      "Duration": 2,
      "PossibleStartDays": [
        23,
        3,
        10,
        21,
        8
      ],
      "SkillsRequested": [
        "Reporting Services"
      ],
      "RequestLocation": {
        "Latitude": 46.72124249,
        "Longitude": -92.10389775,
        "City": "Superior",
        "Postcode": "",
        "Country": "United States of America",
        "Address": ""
      }
    },
    {
      "SelectedOption": null,
      "Duration": 1,
      "PossibleStartDays": [
        2,
        26,
        16,
        14,
        0
      ],
      "SkillsRequested": [
        "C# Development"
      ],
      "RequestLocation": {
        "Latitude": 30.95044802,
        "Longitude": 101.9166626,
        "City": "Rongzhag",
        "Postcode": "",
        "Country": "China",
        "Address": ""
      }
    },
    {
      "SelectedOption": null,
      "Duration": 2,
      "PossibleStartDays": [
        19,
        15,
        2,
        21,
        7
      ],
      "SkillsRequested": [
        "C# Development"
      ],
      "RequestLocation": {
        "Latitude": 34.4361784,
        "Longitude": 104.0305904,
        "City": "Minxian",
        "Postcode": "",
        "Country": "China",
        "Address": ""
      }
    },
    {
      "SelectedOption": null,
      "Duration": 3,
      "PossibleStartDays": [
        12,
        8,
        15,
        3,
        6
      ],
      "SkillsRequested": [
        "SQL Server Development"
      ],
      "RequestLocation": {
        "Latitude": 11.68040977,
        "Longitude": 10.19001339,
        "City": "Azare",
        "Postcode": "",
        "Country": "Nigeria",
        "Address": ""
      }
    },
    {
      "SelectedOption": null,
      "Duration": 3,
      "PossibleStartDays": [
        2,
        19,
        23,
        1,
        7
      ],
      "SkillsRequested": [
        "Integration Services"
      ],
      "RequestLocation": {
        "Latitude": 59.56655662,
        "Longitude": -108.6165849,
        "City": "Uranium City",
        "Postcode": "",
        "Country": "Canada",
        "Address": ""
      }
    },
    {
      "SelectedOption": null,
      "Duration": 3,
      "PossibleStartDays": [
        20,
        23,
        4,
        5,
        13
      ],
      "SkillsRequested": [
        "SQL Server Admin"
      ],
      "RequestLocation": {
        "Latitude": -30.38002033,
        "Longitude": -56.45994938,
        "City": "Quarai",
        "Postcode": "",
        "Country": "Brazil",
        "Address": ""
      }
    },
    {
      "SelectedOption": null,
      "Duration": 2,
      "PossibleStartDays": [
        0,
        27,
        21,
        13,
        8
      ],
      "SkillsRequested": [
        "SQL Server on Linux"
      ],
      "RequestLocation": {
        "Latitude": 16.90655072,
        "Longitude": 42.5565649,
        "City": "Jizan",
        "Postcode": "",
        "Country": "Saudi Arabia",
        "Address": ""
      }
    },
    {
      "SelectedOption": null,
      "Duration": 1,
      "PossibleStartDays": [
        14,
        6,
        8,
        29,
        17
      ],
      "SkillsRequested": [
        "SQL Server Admin"
      ],
      "RequestLocation": {
        "Latitude": 36.39269981,
        "Longitude": 139.0726892,
        "City": "Maebashi",
        "Postcode": "",
        "Country": "Japan",
        "Address": ""
      }
    },
    {
      "SelectedOption": null,
      "Duration": 1,
      "PossibleStartDays": [
        19,
        27,
        12,
        11,
        18
      ],
      "SkillsRequested": [
        "Data Factory"
      ],
      "RequestLocation": {
        "Latitude": -6.129614239,
        "Longitude": 24.47999385,
        "City": "Kabinda",
        "Postcode": "",
        "Country": "Congo (Kinshasa)",
        "Address": ""
      }
    },
    {
      "SelectedOption": null,
      "Duration": 1,
      "PossibleStartDays": [
        11,
        29,
        1,
        13,
        17
      ],
      "SkillsRequested": [
        "SQL Server Development"
      ],
      "RequestLocation": {
        "Latitude": 24.30049217,
        "Longitude": 116.1199816,
        "City": "Meizhou",
        "Postcode": "",
        "Country": "China",
        "Address": ""
      }
    },
    {
      "SelectedOption": null,
      "Duration": 2,
      "PossibleStartDays": [
        15,
        19,
        3,
        9,
        27
      ],
      "SkillsRequested": [
        "SQL Server on Linux"
      ],
      "RequestLocation": {
        "Latitude": 54.3599752,
        "Longitude": 18.64004024,
        "City": "Gdansk",
        "Postcode": "",
        "Country": "Poland",
        "Address": ""
      }
    },
    {
      "SelectedOption": null,
      "Duration": 3,
      "PossibleStartDays": [
        5,
        22,
        16,
        0,
        6
      ],
      "SkillsRequested": [
        "Azure Machine Learning"
      ],
      "RequestLocation": {
        "Latitude": 20.1452936,
        "Longitude": -75.20614364,
        "City": "Guantanamo",
        "Postcode": "",
        "Country": "Cuba",
        "Address": ""
      }
    },
    {
      "SelectedOption": null,
      "Duration": 1,
      "PossibleStartDays": [
        13,
        21,
        15,
        1,
        12
      ],
      "SkillsRequested": [
        "C# Development"
      ],
      "RequestLocation": {
        "Latitude": 37.49997072,
        "Longitude": 15.07999914,
        "City": "Catania",
        "Postcode": "",
        "Country": "Italy",
        "Address": ""
      }
    },
    {
      "SelectedOption": null,
      "Duration": 2,
      "PossibleStartDays": [
        17,
        1,
        9,
        5,
        0
      ],
      "SkillsRequested": [
        "Integration Services"
      ],
      "RequestLocation": {
        "Latitude": 57.75000083,
        "Longitude": 12.0000321,
        "City": "Göteborg",
        "Postcode": "",
        "Country": "Sweden",
        "Address": ""
      }
    },
    {
      "SelectedOption": null,
      "Duration": 2,
      "PossibleStartDays": [
        8,
        13,
        28,
        1,
        29
      ],
      "SkillsRequested": [
        "C# Development"
      ],
      "RequestLocation": {
        "Latitude": -13.2495414,
        "Longitude": 131.0999975,
        "City": "Adelaide River",
        "Postcode": "",
        "Country": "Australia",
        "Address": ""
      }
    },
    {
      "SelectedOption": null,
      "Duration": 3,
      "PossibleStartDays": [
        16,
        5,
        25,
        18,
        6
      ],
      "SkillsRequested": [
        "Integration Services"
      ],
      "RequestLocation": {
        "Latitude": 70.4693795,
        "Longitude": -157.395778,
        "City": "Atqasuk",
        "Postcode": "",
        "Country": "United States of America",
        "Address": ""
      }
    },
    {
      "SelectedOption": null,
      "Duration": 4,
      "PossibleStartDays": [
        15,
        0,
        26,
        27,
        4
      ],
      "SkillsRequested": [
        "C# Development"
      ],
      "RequestLocation": {
        "Latitude": 32.42999595,
        "Longitude": 105.870013,
        "City": "Guangyuan",
        "Postcode": "",
        "Country": "China",
        "Address": ""
      }
    },
    {
      "SelectedOption": null,
      "Duration": 4,
      "PossibleStartDays": [
        8,
        20,
        10,
        0,
        4
      ],
      "SkillsRequested": [
        "Data Factory"
      ],
      "RequestLocation": {
        "Latitude": -28.48003294,
        "Longitude": -48.77997888,
        "City": "Laguna",
        "Postcode": "",
        "Country": "Brazil",
        "Address": ""
      }
    },
    {
      "SelectedOption": null,
      "Duration": 2,
      "PossibleStartDays": [
        28,
        19,
        15,
        14,
        6
      ],
      "SkillsRequested": [
        "C# Development"
      ],
      "RequestLocation": {
        "Latitude": -3.209999167,
        "Longitude": 40.10002234,
        "City": "Malindi",
        "Postcode": "",
        "Country": "Kenya",
        "Address": ""
      }
    },
    {
      "SelectedOption": null,
      "Duration": 3,
      "PossibleStartDays": [
        6,
        12,
        5,
        20,
        23
      ],
      "SkillsRequested": [
        "C# Development"
      ],
      "RequestLocation": {
        "Latitude": 44.62049217,
        "Longitude": -123.086942,
        "City": "Albany",
        "Postcode": "",
        "Country": "United States of America",
        "Address": ""
      }
    },
    {
      "SelectedOption": null,
      "Duration": 4,
      "PossibleStartDays": [
        16,
        3,
        12,
        10,
        17
      ],
      "SkillsRequested": [
        "SQL Server Admin"
      ],
      "RequestLocation": {
        "Latitude": -3.750017884,
        "Longitude": -73.25000981,
        "City": "Iquitos",
        "Postcode": "",
        "Country": "Peru",
        "Address": ""
      }
    },
    {
      "SelectedOption": null,
      "Duration": 4,
      "PossibleStartDays": [
        7,
        17,
        25,
        1,
        15
      ],
      "SkillsRequested": [
        "SQL Server Development"
      ],
      "RequestLocation": {
        "Latitude": 0.130003681,
        "Longitude": 29.28001094,
        "City": "Butembo",
        "Postcode": "",
        "Country": "Congo (Kinshasa)",
        "Address": ""
      }
    },
    {
      "SelectedOption": null,
      "Duration": 1,
      "PossibleStartDays": [
        18,
        29,
        0,
        16,
        20
      ],
      "SkillsRequested": [
        "SQL Server on Linux"
      ],
      "RequestLocation": {
        "Latitude": -1.684665915,
        "Longitude": 29.26290605,
        "City": "Gisenyi",
        "Postcode": "",
        "Country": "Rwanda",
        "Address": ""
      }
    },
    {
      "SelectedOption": null,
      "Duration": 2,
      "PossibleStartDays": [
        27,
        29,
        2,
        7,
        19
      ],
      "SkillsRequested": [
        "C# Development"
      ],
      "RequestLocation": {
        "Latitude": 61.13328269,
        "Longitude": -100.883336,
        "City": "Ennadai",
        "Postcode": "",
        "Country": "Canada",
        "Address": ""
      }
    },
    {
      "SelectedOption": null,
      "Duration": 4,
      "PossibleStartDays": [
        4,
        23,
        11,
        1,
        18
      ],
      "SkillsRequested": [
        "SQL Server Admin"
      ],
      "RequestLocation": {
        "Latitude": 41.67997398,
        "Longitude": 125.7499882,
        "City": "Tonghua",
        "Postcode": "",
        "Country": "China",
        "Address": ""
      }
    },
    {
      "SelectedOption": null,
      "Duration": 2,
      "PossibleStartDays": [
        4,
        1,
        10,
        18,
        26
      ],
      "SkillsRequested": [
        "Reporting Services"
      ],
      "RequestLocation": {
        "Latitude": 26.30318646,
        "Longitude": -98.1599622,
        "City": "Edinburg",
        "Postcode": "",
        "Country": "United States of America",
        "Address": ""
      }
    },
    {
      "SelectedOption": null,
      "Duration": 1,
      "PossibleStartDays": [
        5,
        23,
        19,
        14,
        26
      ],
      "SkillsRequested": [
        "Reporting Services"
      ],
      "RequestLocation": {
        "Latitude": 14.5504413,
        "Longitude": 120.9999939,
        "City": "Pasay City",
        "Postcode": "",
        "Country": "Philippines",
        "Address": ""
      }
    },
    {
      "SelectedOption": null,
      "Duration": 4,
      "PossibleStartDays": [
        12,
        18,
        19,
        2,
        15
      ],
      "SkillsRequested": [
        "Azure Machine Learning"
      ],
      "RequestLocation": {
        "Latitude": 56.34998293,
        "Longitude": -94.69996668,
        "City": "Gillam",
        "Postcode": "",
        "Country": "Canada",
        "Address": ""
      }
    },
    {
      "SelectedOption": null,
      "Duration": 2,
      "PossibleStartDays": [
        27,
        22,
        21,
        10,
        8
      ],
      "SkillsRequested": [
        "Azure Machine Learning"
      ],
      "RequestLocation": {
        "Latitude": 19.05900306,
        "Longitude": -70.1520026,
        "City": "Cotui",
        "Postcode": "",
        "Country": "Dominican Republic",
        "Address": ""
      }
    },
    {
      "SelectedOption": null,
      "Duration": 1,
      "PossibleStartDays": [
        19,
        29,
        25,
        23,
        2
      ],
      "SkillsRequested": [
        "Data Factory"
      ],
      "RequestLocation": {
        "Latitude": 34.88000144,
        "Longitude": 117.5700223,
        "City": "Zaozhuang",
        "Postcode": "",
        "Country": "China",
        "Address": ""
      }
    },