{
  "ModelEvaluations": 0,
  "Skills": [
    "SQL Server Admin",
    "SQL Server Development",
    "Windows Server",
    "Data Factory",
    "C# Development",
    "Integration Services",
    "Reporting Services",
    "Azure Machine Learning",
    "SQL Server on Linux"
  ],
  "Engineers": [
    {
      "Name": "E0",
      "AssignedRequests": {},
      "Skills": [
        "SQL Server Development",
        "Reporting Services",
        "C# Development"
      ],
      "HomeOffice": {
        "Latitude": -25.24054075,
        "Longitude": 130.9888932,
        "City": "Yulara",
        "Postcode": "",
        "Country": "Australia",
        "Address": ""
      }
    },
    {
      "Name": "E1",
      "AssignedRequests": {},
      "Skills": [
        "Azure Machine Learning",
        "Integration Services",
        "Reporting Services"
      ],
      "HomeOffice": {
        "Latitude": 40.40002626,
        "Longitude": -3.683351686,
        "City": "Madrid",
        "Postcode": "",
        "Country": "Spain",
        "Address": ""
      }
    },
    {
      "Name": "E2",
      "AssignedRequests": {},
      "Skills": [
        "C# Development",
        "SQL Server on Linux",
        "Azure Machine Learning"
      ],
      "HomeOffice": {
        "Latitude": 50.39998435,
        "Longitude": -105.5500021,
        "City": "Moose Jaw",
        "Postcode": "",
        "Country": "Canada",
        "Address": ""
      }
    },
    {
      "Name": "E3",
      "AssignedRequests": {},
      "Skills": [
        "Reporting Services",
        "Data Factory",
        "Azure Machine Learning",
        "SQL Server Development"
      ],
      "HomeOffice": {
        "Latitude": 9.940412617,
        "Longitude": 43.18004106,
        "City": "Boorama",
        "Postcode": "",
        "Country": "Somaliland",
        "Address": ""
      }
    },
    {
      "Name": "E4",
      "AssignedRequests": {},
      "Skills": [
        "C# Development",
        "Integration Services",
        "Data Factory",
        "SQL Server on Linux"
      ],
      "HomeOffice": {
        "Latitude": 35.54673077,
        "Longitude": 129.3169539,
        "City": "Ulsan",
        "Postcode": "",
        "Country": "South Korea",
        "Address": ""
      }
    },
    {
      "Name": "E5",
      "AssignedRequests": {},
      "Skills": [
        "C# Development",
        "SQL Server Admin",
        "SQL Server Development"
      ],
      "HomeOffice": {
        "Latitude": 59.72034568,
        "Longitude": -154.8971967,
        "City": "Newhalen",
        "Postcode": "",
        "Country": "United States of America",
        "Address": ""
      }
    },
    {
      "Name": "E6",
      "AssignedRequests": {},
      "Skills": [
        "Integration Services",
        "Reporting Services",
        "C# Development",
        "SQL Server on Linux"
      ],
      "HomeOffice": {
        "Latitude": -5.070040671,
        "Longitude": 39.09000647,
        "City": "Tanga",
        "Postcode": "",
        "Country": "Tanzania",
        "Address": ""
      }
    },
    {
      "Name": "E7",
      "AssignedRequests": {},
      "Skills": [
        "SQL Server Development",
        "SQL Server Admin"
      ],
      "HomeOffice": {
        "Latitude": 60.10001243,
        "Longitude": 150.8999776,
        "City": "Palatka",
        "Postcode": "",
        "Country": "Russia",
        "Address": ""
      }
    },
    {
      "Name": "E8",
      "AssignedRequests": {},
      "Skills": [
        "Windows Server",
        "Integration Services",
        "Data Factory"
      ],
      "HomeOffice": {
        "Latitude": 34.96891075,
        "Longitude": -90.00345748,
        "City": "Southaven",
        "Postcode": "",
        "Country": "United States of America",
        "Address": ""
      }
    },
    {
      "Name": "E9",
      "AssignedRequests": {},
      "Skills": [
        "SQL Server Admin",
        "Integration Services",
        "SQL Server on Linux",
        "Azure Machine Learning"
      ],
      "HomeOffice": {
        "Latitude": 31.05044191,
        "Longitude": 31.3800378,
        "City": "El Mansura",
        "Postcode": "",
        "Country": "Egypt",
        "Address": ""
      }
    },
    {
      "Name": "E10",
      "AssignedRequests": {},
      "Skills": [
        "Integration Services",
        "Data Factory"
      ],
      "HomeOffice": {
        "Latitude": 7.345226355,
        "Longitude": 134.4695009,
        "City": "Koror",
        "Postcode": "",
        "Country": "Palau",
        "Address": ""
      }
    },
    {
      "Name": "E11",
      "AssignedRequests": {},
      "Skills": [
        "C# Development",
        "Reporting Services",
        "Integration Services"
      ],
      "HomeOffice": {
        "Latitude": 22.85042564,
        "Longitude": -105.7999868,
        "City": "Escuinapa",
        "Postcode": "",
        "Country": "Mexico",
        "Address": ""
      }
    }
  ],
  "Requests": [
    {
      "SelectedOption": null,
      "Duration": 2,
      "PossibleStartDays": [
        18,
        23,
        21,
        12,
        24
      ],
      "SkillsRequested": [
        "C# Development"
      ],
      "RequestLocation": {
        "Latitude": 36.53499086,
        "Longitude": -6.225005332,
        "City": "Cadiz",
        "Postcode": "",
        "Country": "Spain",
        "Address": ""
      }
    },
    {
      "SelectedOption": null,
      "Duration": 1,
      "PossibleStartDays": [
        8,
        19,
        14,
        25,
        5
      ],
      "SkillsRequested": [
        "Reporting Services"
      ],
      "RequestLocation": {
        "Latitude": -11.79960407,
        "Longitude": -75.50002751,
        "City": "Jauja",
        "Postcode": "",
        "Country": "Peru",
        "Address": ""
      }
    },
    {
      "SelectedOption": null,
      "Duration": 1,
      "PossibleStartDays": [
        27,
        2,
        11,
        15,
        5
      ],
      "SkillsRequested": [
        "SQL Server on Linux"
      ],
      "RequestLocation": {
        "Latitude": 27.71669191,
        "Longitude": 85.31664221,
        "City": "Kathmandu",
        "Postcode": "",
        "Country": "Nepal",
        "Address": ""
      }
    },
    {
      "SelectedOption": null,
      "Duration": 1,
      "PossibleStartDays": [
        12,
        6,
        10,
        15,
        27
      ],
      "SkillsRequested": [
        "SQL Server Development"
      ],
      "RequestLocation": {
        "Latitude": 50.93331097,
        "Longitude": -102.7999891,
        "City": "Melville",
        "Postcode": "",
        "Country": "Canada",
        "Address": ""
      }
    },
    {
      "SelectedOption": null,
      "Duration": 1,
      "PossibleStartDays": [
        18,
        22,
        24,
        3,
        27
      ],
      "SkillsRequested": [
        "SQL Server Admin"
      ],
      "RequestLocation": {
        "Latitude": 58.41001223,
        "Longitude": 15.62993974,
        "City": "Linköping",
        "Postcode": "",
        "Country": "Sweden",
        "Address": ""
      }
    },
    {
      "SelectedOption": null,
      "Duration": 2,
      "PossibleStartDays": [
        26,
        21,
        10,
        5,
        19
      ],
      "SkillsRequested": [
        "Windows Server"
      ],
      "RequestLocation": {
        "Latitude": 46.87430808,
        "Longitude": -96.74219344,
        "City": "Moorhead",
        "Postcode": "",
        "Country": "United States of America",
        "Address": ""
      }
    },
    {
      "SelectedOption": null,
      "Duration": 2,
      "PossibleStartDays": [
        3,
        18,
        16,
        8,
        11
      ],
      "SkillsRequested": [
        "SQL Server Admin"
      ],
      "RequestLocation": {
        "Latitude": 61.06075482,
        "Longitude": 76.0953446,
        "City": "Megion",
        "Postcode": "",
        "Country": "Russia",
        "Address": ""
      }
    },
    {
      "SelectedOption": null,
      "Duration": 4,
      "PossibleStartDays": [
        23,
        22,
        4,
        20,
        24
      ],
      "SkillsRequested": [
        "C# Development"
      ],
      "RequestLocation": {
        "Latitude": 2.070376199,
        "Longitude": -74.64002832,
        "City": "San Vicente del Caguan",
        "Postcode": "",
        "Country": "Colombia",
        "Address": ""
      }
    },
    {
      "SelectedOption": null,
      "Duration": 3,
      "PossibleStartDays": [
        9,
        3,
        8,
        7,
        17
      ],
      "SkillsRequested": [
        "SQL Server on Linux"
      ],
      "RequestLocation": {
        "Latitude": 3.660434183,
        "Longitude": 18.61998979,
        "City": "Libenge",
        "Postcode": "",
        "Country": "Congo (Kinshasa)",
        "Address": ""
      }
    },
    {
      "SelectedOption": null,
      "Duration": 4,
      "PossibleStartDays": [
        7,
        21,
        26,
        19,
        1
      ],
      "SkillsRequested": [
        "SQL Server on Linux"
      ],
      "RequestLocation": {
        "Latitude": 40.6102778,
        "Longitude": 46.7897222,
        "City": "Goranboy",
        "Postcode": "",
        "Country": "Azerbaijan",
        "Address": ""
      }
    },
    {
      "SelectedOption": null,
      "Duration": 4,
      "PossibleStartDays": [
        21,
        27,
        29,
        4,
        2
      ],
      "SkillsRequested": [
        "Data Factory"
      ],
      "RequestLocation": {
        "Latitude": 22.06044802,
        "Longitude": -98.18998621,
        "City": "Panuco",
        "Postcode": "",
        "Country": "Mexico",
        "Address": ""
      }
    },
    {
      "SelectedOption": null,
      "Duration": 2,
      "PossibleStartDays": [
        24,
        13,
        18,
        5,
        3
      ],
      "SkillsRequested": [
        "Azure Machine Learning"
      ],
      "RequestLocation": {
        "Latitude": 29.40041343,
        "Longitude": 76.96996822,
        "City": "Panipat",
        "Postcode": "",
        "Country": "India",
        "Address": ""
      }
    },
    {
      "SelectedOption": null,
      "Duration": 1,
      "PossibleStartDays": [
        11,
        5,
        10,
        6,
        13
      ],
      "SkillsRequested": [
        "Reporting Services"
      ],
      "RequestLocation": {
        "Latitude": 37.82480878,
        "Longitude": 65.19973059,
        "City": "Atamyrat",
        "Postcode": "",
        "Country": "Turkmenistan",
        "Address": ""
      }
    },
    {
      "SelectedOption": null,
      "Duration": 4,
      "PossibleStartDays": [
        15,
        19,
        0,
        20,
        1
      ],
      "SkillsRequested": [
        "Azure Machine Learning"
      ],
      "RequestLocation": {
        "Latitude": 11.42042564,
        "Longitude": -7.48996688,
        "City": "Bougouni",
        "Postcode": "",
        "Country": "Mali",
        "Address": ""
      }
    },
    {
      "SelectedOption": null,
      "Duration": 3,
      "PossibleStartDays": [
        5,
        23,
        28,
        27,
        17
      ],
      "SkillsRequested": [
        "SQL Server on Linux"
      ],
      "RequestLocation": {
        "Latitude": 17.6704059,
        "Longitude": 75.90000769,
        "City": "Sholapur",
        "Postcode": "",
        "Country": "India",
        "Address": ""
      }
    },
    {
      "SelectedOption": null,
      "Duration": 1,
      "PossibleStartDays": [
        21,
        12,
        4,
        6,
        27
      ],
      "SkillsRequested": [
        "SQL Server on Linux"
      ],
      "RequestLocation": {
        "Latitude": 37.87390139,
        "Longitude": -122.271152,
        "City": "Berkeley",
        "Postcode": "",
        "Country": "United States of America",
        "Address": ""
      }
    },
    {
      "SelectedOption": null,
      "Duration": 4,
      "PossibleStartDays": [
        3,
        7,
        25,
        15,
        10
      ],
      "SkillsRequested": [
        "Azure Machine Learning"
      ],
      "RequestLocation": {
        "Latitude": -43.41627887,
        "Longitude": -67.24998845,
        "City": "Las Plumas",
        "Postcode": "",
        "Country": "Argentina",
        "Address": ""
      }
    },
    {
      "SelectedOption": null,
      "Duration": 4,
      "PossibleStartDays": [
        5,
        18,
        13,
        9,
        22
      ],
      "SkillsRequested": [
        "Data Factory"
      ],
      "RequestLocation": {
        "Latitude": 47.68800519,
        "Longitude": -114.156686,
        "City": "Polson",
        "Postcode": "",
        "Country": "United States of America",
        "Address": ""
      }
    },
    {
      "SelectedOption": null,
      "Duration": 4,
      "PossibleStartDays": [
        20,
        29,
        10,
        7,
        28
      ],
      "SkillsRequested": [
        "SQL Server Admin"
      ],
      "RequestLocation": {
        "Latitude": 45.40000531,
        "Longitude": -71.89998885,
        "City": "Sherbrooke",
        "Postcode": "",
        "Country": "Canada",
        "Address": ""
      }
    },
    {
      "SelectedOption": null,
      "Duration": 1,
      "PossibleStartDays": [
        10,
        14,
        0,
        11,
        12
      ],
      "SkillsRequested": [
        "Windows Server"
      ],
      "RequestLocation": {
        "Latitude": 40.88469952,
        "Longitude": 107.140013,
        "City": "Hanggin Houqi",
        "Postcode": "",
        "Country": "China",
        "Address": ""
      }
    },
    {
      "SelectedOption": null,
      "Duration": 3,
      "PossibleStartDays": [
        29,
        24,
        27,
        11,
        17
      ],
      "SkillsRequested": [
        "SQL Server on Linux"
      ],
      "RequestLocation": {
        "Latitude": 29.25000013,
        "Longitude": 82.21670162,
        "City": "Jumla",
        "Postcode": "",
        "Country": "Nepal",
        "Address": ""
      }
    },
    {
      "SelectedOption": null,
      "Duration": 2,
      "PossibleStartDays": [
        1,
        17,
        12,
        15,
        13
      ],
      "SkillsRequested": [
        "Azure Machine Learning"
      ],
      "RequestLocation": {
        "Latitude": -2.866195863,
        "Longitude": 32.16660478,
        "City": "Geita",
        "Postcode": "",
        "Country": "Tanzania",
        "Address": ""
      }
    },
    {
      "SelectedOption": null,
      "Duration": 3,
      "PossibleStartDays": [
        7,
        3,
        15,
        28,
        11
      ],
      "SkillsRequested": [
        "Integration Services"
      ],
      "RequestLocation": {
        "Latitude": 41.31136599,
        "Longitude": -105.5905681,
        "City": "Laramie",
        "Postcode": "",
        "Country": "United States of America",
        "Address": ""
      }
    },
    {
      "SelectedOption": null,
      "Duration": 4,
      "PossibleStartDays": [
        0,
        16,
        4,
        25,
        27
      ],
      "SkillsRequested": [
        "SQL Server on Linux"
      ],
      "RequestLocation": {
        "Latitude": 42.03946108,
        "Longitude": -88.28991866,
        "City": "Elgin",
        "Postcode": "",
        "Country": "United States of America",
        "Address": ""
      }
    },
    {
      "SelectedOption": null,
      "Duration": 2,
      "PossibleStartDays": [
        0,
        16,
        9,
        27,
        26
      ],
      "SkillsRequested": [
        "Integration Services"
      ],
      "RequestLocation": {
        "Latitude": 33.92065432,
        "Longitude": -80.34172164,
        "City": "Sumter",
        "Postcode": "",
        "Country": "United States of America",
        "Address": ""
      }
    },
    {
      "SelectedOption": null,
      "Duration": 4,
      "PossibleStartDays": [
        4,
        16,
        5,
        11,
        23
      ],
      "SkillsRequested": [
        "Windows Server"
      ],
      "RequestLocation": {
        "Latitude": 21.19998374,
        "Longitude": 72.84003943,
        "City": "Surat",
        "Postcode": "",
        "Country": "India",
        "Address": ""
      }
    },
    {
      "SelectedOption": null,
      "Duration": 3,
      "PossibleStartDays": [
        15,
        12,
        4,
        8,
        2
      ],
      "SkillsRequested": [
        "Reporting Services"
      ],
      "RequestLocation": {
        "Latitude": 14.35879925,
        "Longitude": 100.5684244,
        "City": "Ayutthaya",
        "Postcode": "",
        "Country": "Thailand",
        "Address": ""
      }
    },
    {
      "SelectedOption": null,
      "Duration": 3,
      "PossibleStartDays": [
        27,
        29,
        11,
        0,
        8
      ],
      "SkillsRequested": [
        "SQL Server Development"
      ],
      "RequestLocation": {
        "Latitude": 50.57994753,
        "Longitude": 72.56992672,
        "City": "Osakarovka",
        "Postcode": "",
        "Country": "Kazakhstan",
        "Address": ""
      }
    },
    {
      "SelectedOption": null,
      "Duration": 4,
      "PossibleStartDays": [
        18,
        25,
        14,
        27,
        11
      ],
      "SkillsRequested": [
        "Integration Services"
      ],
      "RequestLocation": {
        "Latitude": 52.97034426,
        "Longitude": -1.170016725,
        "City": "Nottingham",
        "Postcode": "",
        "Country": "United Kingdom",
        "Address": ""
      }
    },
    {
      "SelectedOption": null,
      "Duration": 1,
      "PossibleStartDays": [
        20,
        8,
        23,
        25,
        17
      ],
      "SkillsRequested": [
        "Data Factory"
      ],
      "RequestLocation": {
        "Latitude": 60.80002138,
        "Longitude": 135.1833142,
        "City": "Eldikan",
        "Postcode": "",
        "Country": "Russia",
        "Address": ""
      }
    },
    {
      "SelectedOption": null,
      "Duration": 3,
      "PossibleStartDays": [
        21,
        13,
        9,
        15,
        10
      ],
      "SkillsRequested": [
        "Windows Server"
      ],
      "RequestLocation": {
        "Latitude": 50.15002545,
        "Longitude": -96.88332178,
        "City": "Selkirk",
        "Postcode": "",
        "Country": "Canada",
        "Address": ""
      }
    },
    {
      "SelectedOption": null,
      "Duration": 3,
      "PossibleStartDays": [
        1,
        3,
        0,
        26,
        12
      ],
      "SkillsRequested": [
        "Data Factory"
      ],
      "RequestLocation": {
        "Latitude": 45.81000612,
        "Longitude": 9.08000362,
        "City": "Como",
        "Postcode": "",
        "Country": "Italy",
        "Address": ""
      }
    },
    {
      "SelectedOption": null,
      "Duration": 2,
      "PossibleStartDays": [
        19,
        18,
        22,
        27,
        6
      ],
      "SkillsRequested": [
        "SQL Server Development"
      ],
      "RequestLocation": {
        "Latitude": 33.58000327,
        "Longitude": -101.8799677,
        "City": "Lubbock",
        "Postcode": "",
        "Country": "United States of America",
        "Address": ""
      }
    },
    {
      "SelectedOption": null,
      "Duration": 4,
      "PossibleStartDays": [
        20,
        21,
        18,
        24,
        26
      ],
      "SkillsRequested": [
        "C# Development"
      ],
      "RequestLocation": {
        "Latitude": -4.969581687,
        "Longitude": 23.4300321,
        "City": "Lusambo",
        "Postcode": "",
        "Country": "Congo (Kinshasa)",
        "Address": ""
      }
    },
    {
      "SelectedOption": null,
      "Duration": 3,
      "PossibleStartDays": [
        24,
        2,
        8,
        19,
        11
      ],
      "SkillsRequested": [
        "Data Factory"
      ],
      "RequestLocation": {
        "Latitude": 61.18329612,
        "Longitude": 6.849999471,
        "City": "Leikanger",
        "Postcode": "",
        "Country": "Norway",
        "Address": ""
      }
    },
    {
      "SelectedOption": null,
      "Duration": 1,
      "PossibleStartDays": [
        3,
        25,
        8,
        1,
        0
      ],
      "SkillsRequested": [
        "Data Factory"
      ],
      "RequestLocation": {
        "Latitude": 39.8407064,
        "Longitude": -88.95473596,
        "City": "Decatur",
        "Postcode": "",
        "Country": "United States of America",
        "Address": ""
      }
    },
    {
      "SelectedOption": null,
      "Duration": 2,
      "PossibleStartDays": [
        5,
        28,
        23,
        7,
        2
      ],
      "SkillsRequested": [
        "Integration Services"
      ],
      "RequestLocation": {
        "Latitude": 1.610404275,
        "Longitude": -75.61999435,
        "City": "Florencia",
        "Postcode": "",
        "Country": "Colombia",
        "Address": ""
      }
    },
    {
      "SelectedOption": null,
      "Duration": 4,
      "PossibleStartDays": [
        25,
        19,
        1,
        14,
        12
      ],
      "SkillsRequested": [
        "Azure Machine Learning"
      ],
      "RequestLocation": {
        "Latitude": -23.01953937,
        "Longitude": -45.55999455,
        "City": "Taubate",
        "Postcode": "",
        "Country": "Brazil",
        "Address": ""
      }
    },
    {
      "SelectedOption": null,
      "Duration": 2,
      "PossibleStartDays": [
        10,
        3,
        4,
        15,
        8
      ],
      "SkillsRequested": [
        "SQL Server Admin"
      ],
      "RequestLocation": {
        "Latitude": 69.63507623,
        "Longitude": 18.99202525,
        "City": "Tromsø",
        "Postcode": "",
        "Country": "Norway",
        "Address": ""
      }
    },
    {
      "SelectedOption": null,
      "Duration": 2,
      "PossibleStartDays": [
        3,
        2,
        1,
        12,
        24
      ],
      "SkillsRequested": [
        "C# Development"
      ],
      "RequestLocation": {
        "Latitude": 37.77039349,
        "Longitude": -3.799985394,
        "City": "Jaén",
        "Postcode": "",
        "Country": "Spain",
        "Address": ""
      }
    },
    {
      "SelectedOption": null,
      "Duration": 3,
      "PossibleStartDays": [
        8,
        13,
        20,
        17,
        16
      ],
      "SkillsRequested": [
        "C# Development"
      ],
      "RequestLocation": {
        "Latitude": 31.46039105,
        "Longitude": 30.39002071,
        "City": "Rashid",
        "Postcode": "",
        "Country": "Egypt",
        "Address": ""
      }
    },
    {
      "SelectedOption": null,
      "Duration": 4,
      "PossibleStartDays": [
        23,
        15,
        17,
        26,
        21
      ],
      "SkillsRequested": [
        "Reporting Services"
      ],
      "RequestLocation": {
        "Latitude": 41.34185508,
        "Longitude": 72.23144608,
        "City": "Tash Komur",
        "Postcode": "",
        "Country": "Kyrgyzstan",
        "Address": ""
      }
    },
    {
      "SelectedOption": null,
      "Duration": 3,
      "PossibleStartDays": [
        12,
        23,
        19,
        3,
        4
      ],
      "SkillsRequested": [
        "Azure Machine Learning"
      ],
      "RequestLocation": {
        "Latitude": -2.980039043,
        "Longitude": 104.7500297,
        "City": "Palembang",
        "Postcode": "",
        "Country": "Indonesia",
        "Address": ""
      }
    },
    {
      "SelectedOption": null,
      "Duration": 1,
      "PossibleStartDays": [
        29,
        21,
        3,
        12,
        0
      ],
      "SkillsRequested": [
        "C# Development"
      ],
      "RequestLocation": {
        "Latitude": 37.22776512,
        "Longitude": -77.40223698,
        "City": "Petersburg",
        "Postcode": "",
        "Country": "United States of America",
        "Address": ""
      }
    },
    {
      "SelectedOption": null,
      "Duration": 4,
      "PossibleStartDays": [
        6,
        28,
        24,
        1,
        16
      ],
      "SkillsRequested": [
        "SQL Server Development"
      ],
      "RequestLocation": {
        "Latitude": 49.75038576,
        "Longitude": 129.6166772,
        "City": "Progress",
        "Postcode": "",
        "Country": "Russia",
        "Address": ""
      }
    },
    {
      "SelectedOption": null,
      "Duration": 2,
      "PossibleStartDays": [
        22,
        24,
        27,
        25,
        14
      ],
      "SkillsRequested": [
        "C# Development"
      ],
      "RequestLocation": {
        "Latitude": 11.88817486,
        "Longitude": 3.446652383,
        "City": "Gaya",
        "Postcode": "",
        "Country": "Niger",
        "Address": ""
      }
    },
    {
      "SelectedOption": null,
      "Duration": 3,
      "PossibleStartDays": [
        1,
        6,
        11,
        5,
        16
      ],
      "SkillsRequested": [
        "SQL Server Admin"
      ],
      "RequestLocation": {
        "Latitude": 37.37039207,
        "Longitude": 115.3700016,
        "City": "Nangong",
        "Postcode": "",
        "Country": "China",
        "Address": ""
      }
    },
    {
      "SelectedOption": null,
      "Duration": 1,
      "PossibleStartDays": [
        0,
        24,
        17,
        11,
        14
      ],
      "SkillsRequested": [
        "Azure Machine Learning"
      ],
      "RequestLocation": {
        "Latitude": -16.84958006,
        "Longitude": 38.26003129,
        "City": "Mocuba",
        "Postcode": "",
        "Country": "Mozambique",
        "Address": ""
      }
    },
    {
      "SelectedOption": null,
      "Duration": 3,
      "PossibleStartDays": [
        11,
        14,
        29,
        6,
        8
      ],
      "SkillsRequested": [
        "Integration Services"
      ],
      "RequestLocation": {
        "Latitude": -5.780023174,
        "Longitude": -35.24000431,
        "City": "Natal",
        "Postcode": "",
        "Country": "Brazil",
        "Address": ""
      }
    },
    {
      "SelectedOption": null,
      "Duration": 3,
      "PossibleStartDays": [
        4,
        21,
        2,
        26,
        15
      ],
      "SkillsRequested": [
        "Data Factory"
      ],
      "RequestLocation": {
        "Latitude": 55.39998924,
        "Longitude": 43.80000321,
        "City": "Arzamas",
        "Postcode": "",
        "Country": "Russia",
        "Address": ""
      }
    },
    {
      "SelectedOption": null,
      "Duration": 1,
      "PossibleStartDays": [
        29,
        26,
        15,
        22,
        1
      ],
      "SkillsRequested": [
        "Data Factory"
      ],
      "RequestLocation": {
        "Latitude": 13.280363789999999,
        "Longitude": -16.65994979,
        "City": "Brikama",
        "Postcode": "",
        "Country": "The Gambia",
        "Address": ""
      }
    },
    {
      "SelectedOption": null,
      "Duration": 2,
      "PossibleStartDays": [
        21,
        10,
        24,
        26,
        7
      ],
      "SkillsRequested": [
        "C# Development"
      ],
      "RequestLocation": {
        "Latitude": 65.58326947,
        "Longitude": -171.0249978,
        "City": "Lavrentiya",
        "Postcode": "",
        "Country": "Russia",
        "Address": ""
      }
    },
    {
      "SelectedOption": null,
      "Duration": 1,
      "PossibleStartDays": [
        2,
        3,
        7,
        19,
        24
      ],
      "SkillsRequested": [
        "Windows Server"
      ],
      "RequestLocation": {
        "Latitude": 44.72996869,
        "Longitude": 37.76993201,
        "City": "Novorossiysk",
        "Postcode": "",
        "Country": "Russia",
        "Address": ""
      }
    },
    {
      "SelectedOption": null,
      "Duration": 4,
      "PossibleStartDays": [
        25,
        11,
        15,
        29,
        21
      ],
      "SkillsRequested": [
        "Reporting Services"
      ],
      "RequestLocation": {
        "Latitude": 60.15652061,
        "Longitude": 59.96154903,
        "City": "Severouralsk",
        "Postcode": "",
        "Country": "Russia",
        "Address": ""
      }
    },
    {
      "SelectedOption": null,
      "Duration": 3,
      "PossibleStartDays": [
        22,
        19,
        25,
        10,
        2
      ],
      "SkillsRequested": [
        "C# Development"
      ],
      "RequestLocation": {
        "Latitude": 42.09901817,
        "Longitude": -75.91832239,
        "City": "Binghamton",
        "Postcode": "",
        "Country": "United States of America",
        "Address": ""
      }
    },
    {
      "SelectedOption": null,
      "Duration": 2,
      "PossibleStartDays": [
        28,
        21,
        23,
        29,
        26
      ],
      "SkillsRequested": [
        "C# Development"
      ],
      "RequestLocation": {
        "Latitude": 41.55000775,
        "Longitude": -73.05002202,
        "City": "Waterbury",
        "Postcode": "",
        "Country": "United States of America",
        "Address": ""
      }
    },
    {
      "SelectedOption": null,
      "Duration": 3,
      "PossibleStartDays": [
        12,
        29,
        17,
        23,
        4
      ],
      "SkillsRequested": [
        "Integration Services"
      ],
      "RequestLocation": {
        "Latitude": 18.76400114,
        "Longitude": -69.03500346,
        "City": "El Seibo",
        "Postcode": "",
        "Country": "Dominican Republic",
        "Address": ""
      }
    },
    {
      "SelectedOption": null,
      "Duration": 1,
      "PossibleStartDays": [
        5,
        1,
        8,
        28,
        21
      ],
      "SkillsRequested": [
        "SQL Server Admin"
      ],
      "RequestLocation": {
        "Latitude": 36.22997072,
        "Longitude": 37.1700203,
        "City": "Aleppo",
        "Postcode": "",
        "Country": "Syria",
        "Address": ""
      }
    },
    {
      "SelectedOption": null,
      "Duration": 4,
      "PossibleStartDays": [
        12,
        22,
        3,
        21,
        1
      ],
      "SkillsRequested": [
        "SQL Server Development"
      ],
      "RequestLocation": {
        "Latitude": -34.93498777,
        "Longitude": 138.6000048,
        "City": "Adelaide",
        "Postcode": "",
        "Country": "Australia",
        "Address": ""
      }
    },
    {
      "SelectedOption": null,
      "Duration": 4,
      "PossibleStartDays": [
        24,
        29,
        26,
        14,
        25
      ],
      "SkillsRequested": [
        "Windows Server"
      ],
      "RequestLocation": {
        "Latitude": 64.28329714,
        "Longitude": 100.2500459,
        "City": "Tura",
        "Postcode": "",
        "Country": "Russia",
        "Address": ""
      }
    },
    {
      "SelectedOption": null,
      "Duration": 1,
      "PossibleStartDays": [
        22,
        4,
        5,
        10,
        18
      ],
      "SkillsRequested": [
        "SQL Server Admin"
      ],
      "RequestLocation": {
        "Latitude": 59.43387738,
        "Longitude": 24.72804073,
        "City": "Tallinn",
        "Postcode": "",
        "Country": "Estonia",
        "Address": ""
      }
    },
    {
      "SelectedOption": null,
      "Duration": 4,
      "PossibleStartDays": [
        1,
        0,
        28,
        23,
        3
      ],
      "SkillsRequested": [
        "SQL Server Development"
      ],
      "RequestLocation": {
        "Latitude": -4.616631654,
        "Longitude": 55.44998979,
        "City": "Victoria",
        "Postcode": "",
        "Country": "Seychelles",
        "Address": ""
      }
    },
    {
      "SelectedOption": null,
      "Duration": 3,
      "PossibleStartDays": [
        4,
        6,
        21,
        27,
        18
      ],
      "SkillsRequested": [
        "Integration Services"
      ],
      "RequestLocation": {
        "Latitude": 32.98897992,
        "Longitude": 70.59857418,
        "City": "Bannu",
        "Postcode": "",
        "Country": "Pakistan",
        "Address": ""
      }
    },
    {
      "SelectedOption": null,
      "Duration": 1,
      "PossibleStartDays": [
        25,
        5,
        9,
        16,
        13
      ],
      "SkillsRequested": [
        "Windows Server"
      ],
      "RequestLocation": {
        "Latitude": 35.2167031,
        "Longitude": 8.716698503,
        "City": "Kasserine",
        "Postcode": "",
        "Country": "Tunisia",
        "Address": ""
      }
    },
    {
      "SelectedOption": null,
      "Duration": 4,
      "PossibleStartDays": [
        9,
        0,
        6,
        12,
        23
      ],
      "SkillsRequested": [
        "Reporting Services"
      ],
      "RequestLocation": {
        "Latitude": 49.02040448,
        "Longitude": 12.12002478,
        "City": "Regensburg",
        "Postcode": "",
        "Country": "Germany",
        "Address": ""
      }
    },
    {
      "SelectedOption": null,
      "Duration": 2,
      "PossibleStartDays": [
        0,
        28,
        23,
        15,
        20
      ],
      "SkillsRequested": [
        "C# Development"
      ],
      "RequestLocation": {
        "Latitude": 23.22538983,
        "Longitude": 56.51695308,
        "City": "Ibri",
        "Postcode": "",
        "Country": "Oman",
        "Address": ""
      }
    },
    {
      "SelectedOption": null,
      "Duration": 2,
      "PossibleStartDays": [
        10,
        20,
        28,
        3,
        11
      ],
      "SkillsRequested": [
        "Windows Server"
      ],
      "RequestLocation": {
        "Latitude": 34.12986635,
        "Longitude": 118.7733597,
        "City": "Shuyang",
        "Postcode": "",
        "Country": "China",
        "Address": ""
      }
    },
    {
      "SelectedOption": null,
      "Duration": 4,
      "PossibleStartDays": [
        14,
        8,
        29,
        17,
        26
      ],
      "SkillsRequested": [
        "SQL Server Development"
      ],
      "RequestLocation": {
        "Latitude": -29.31667438,
        "Longitude": 27.48327307,
        "City": "Maseru",
        "Postcode": "",
        "Country": "Lesotho",
        "Address": ""
      }
    },
    {
      "SelectedOption": null,
      "Duration": 2,
      "PossibleStartDays": [
        12,
        9,
        18,
        10,
        21
      ],
      "SkillsRequested": [
        "SQL Server Development"
      ],
      "RequestLocation": {
        "Latitude": 26.42041445,
        "Longitude": -108.6199956,
        "City": "El Fuerte",
        "Postcode": "",
        "Country": "Mexico",
        "Address": ""
      }
    },
    {
      "SelectedOption": null,
      "Duration": 2,
      "PossibleStartDays": [
        5,
        27,
        20,
        7,
        10
      ],
      "SkillsRequested": [
        "Integration Services"
      ],
      "RequestLocation": {
        "Latitude": 36.01065594,
        "Longitude": -84.26972477,
        "City": "Oak Ridge",
        "Postcode": "",
        "Country": "United States of America",
        "Address": ""
      }
    },
    {
      "SelectedOption": null,
      "Duration": 3,
      "PossibleStartDays": [
        29,
        6,
        22,
        25,
        7
      ],
      "SkillsRequested": [
        "SQL Server on Linux"
      ],
      "RequestLocation": {
        "Latitude": 42.87307945,
        "Longitude": 74.58520422,
        "City": "Bishkek",
        "Postcode": "",
        "Country": "Kyrgyzstan",
        "Address": ""
      }
    },
    {
      "SelectedOption": null,
      "Duration": 2,
      "PossibleStartDays": [
        2,
        27,
        14,
        9,
        0
      ],
      "SkillsRequested": [
        "C# Development"
      ],
      "RequestLocation": {
        "Latitude": 1.110460631,
        "Longitude": 36.68002437,
        "City": "Maralal",
        "Postcode": "",
        "Country": "Kenya",
        "Address": ""
      }
    },
    {
      "SelectedOption": null,
      "Duration": 3,
      "PossibleStartDays": [
        18,
        3,
        8,
        0,
        19
      ],
      "SkillsRequested": [
        "Data Factory"
      ],
      "RequestLocation": {
        "Latitude": 42.66032757,
        "Longitude": 20.3107393,
        "City": "Pec",
        "Postcode": "",
        "Country": "Kosovo",
        "Address": ""
      }
    },
    {
      "SelectedOption": null,
      "Duration": 4,
      "PossibleStartDays": [
        29,
        16,
        5,
        26,
        25
      ],
      "SkillsRequested": [
        "Data Factory"
      ],
      "RequestLocation": {
        "Latitude": 11.68040977,
        "Longitude": 10.19001339,
        "City": "Azare",
        "Postcode": "",
        "Country": "Nigeria",
        "Address": ""
      }
    },
    {
      "SelectedOption": null,
      "Duration": 4,
      "PossibleStartDays": [
        13,
        20,
        26,
        8,
        24
      ],
      "SkillsRequested": [
        "Integration Services"
      ],
      "RequestLocation": {
        "Latitude": -12.71660236,
        "Longitude": -60.11659957,
        "City": "Vilhena",
        "Postcode": "",
        "Country": "Brazil",
        "Address": ""
      }
    },
    {
      "SelectedOption": null,
      "Duration": 2,
      "PossibleStartDays": [
        23,
        3,
        8,
        24,
        25
      ],
      "SkillsRequested": [
        "SQL Server Admin"
      ],
      "RequestLocation": {
        "Latitude": -10.83330646,
        "Longitude": -61.96700342,
        "City": "Ji-Parana",
        "Postcode": "",
        "Country": "Brazil",
        "Address": ""
      }
    },
    {
      "SelectedOption": null,
      "Duration": 3,
      "PossibleStartDays": [
        12,
        8,
        18,
        6,
        10
      ],
      "SkillsRequested": [
        "C# Development"
      ],
      "RequestLocation": {
        "Latitude": 17.24999229,
        "Longitude": -100.6799893,
        "City": "Tecpan",
        "Postcode": "",
        "Country": "Mexico",
        "Address": ""
      }
    },
    {
      "SelectedOption": null,
      "Duration": 2,
      "PossibleStartDays": [
        17,
        11,
        25,
        21,
        4
      ],
      "SkillsRequested": [
        "SQL Server Admin"
      ],
      "RequestLocation": {
        "Latitude": 36.16658958,
        "Longitude": 98.26660111,
        "City": "Dulan",
        "Postcode": "",
        "Country": "China",
        "Address": ""
      }
    },
    {
      "SelectedOption": null,
      "Duration": 3,
      "PossibleStartDays": [
        22,
        25,
        10,
        7,
        17
      ],
      "SkillsRequested": [
        "SQL Server Development"
      ],
      "RequestLocation": {
        "Latitude": -23.46948606,
        "Longitude": -57.23997929,
        "City": "Belen",
        "Postcode": "",
        "Country": "Paraguay",
        "Address": ""
      }
    },
    {
      "SelectedOption": null,
      "Duration": 2,
      "PossibleStartDays": [
        7,
        15,
        19,
        23,
        9
      ],
      "SkillsRequested": [
        "Windows Server"
      ],
      "RequestLocation": {
        "Latitude": 42.88201947,
        "Longitude": -97.39248967,
        "City": "Yankton",
        "Postcode": "",
        "Country": "United States of America",
        "Address": ""
      }
    },
    {
      "SelectedOption": null,
      "Duration": 4,
      "PossibleStartDays": [
        16,
        8,
        28,
        9,
        29
      ],
      "SkillsRequested": [
        "C# Development"
      ],
      "RequestLocation": {
        "Latitude": -9.464707826,
        "Longitude": 147.1925036,
        "City": "Port Moresby",
        "Postcode": "",
        "Country": "Papua New Guinea",
        "Address": ""
      }
    },
    {
      "SelectedOption": null,
      "Duration": 2,
      "PossibleStartDays": [
        12,
        13,
        27,
        5,
        14
      ],
      "SkillsRequested": [
        "Reporting Services"
      ],
      "RequestLocation": {
        "Latitude": 15.00043968,
        "Longitude": 103.116641,
        "City": "Buriram",
        "Postcode": "",
        "Country": "Thailand",
        "Address": ""
      }
    },
    {
      "SelectedOption": null,
      "Duration": 1,
      "PossibleStartDays": [
        24,
        6,
        23,
        5,
        21
      ],
      "SkillsRequested": [
        "SQL Server Admin"
      ],
      "RequestLocation": {
        "Latitude": -20.73037677,
        "Longitude": 116.8700134,
        "City": "Karratha",
        "Postcode": "",
        "Country": "Australia",
        "Address": ""
      }
    },
    {
      "SelectedOption": null,
      "Duration": 2,
      "PossibleStartDays": [
        7,
        23,
        11,
        26,
        15
      ],
      "SkillsRequested": [
        "SQL Server Development"
      ],
      "RequestLocation": {
        "Latitude": 39.82000999,
        "Longitude": 98.29998409,
        "City": "Jiayuguan",
        "Postcode": "",
        "Country": "China",
        "Address": ""
      }
    },
    {
      "SelectedOption": null,
      "Duration": 3,
      "PossibleStartDays": [
        2,
        26,
        24,
        16,
        28
      ],
      "SkillsRequested": [
        "SQL Server Development"
      ],
      "RequestLocation": {
        "Latitude": -0.359578838,
        "Longitude": 35.280006469999996,
        "City": "Kericho",
        "Postcode": "",
        "Country": "Kenya",
        "Address": ""
      }
    },
    {
      "SelectedOption": null,
      "Duration": 4,
      "PossibleStartDays": [
        26,
        14,
        9,
        1,
        0
      ],
      "SkillsRequested": [
        "SQL Server Development"
      ],
      "RequestLocation": {
        "Latitude": 3.166665872,
        "Longitude": 101.6999833,
        "City": "Kuala Lumpur",
        "Postcode": "",
        "Country": "Malaysia",
        "Address": ""
      }
    },
    {
      "SelectedOption": null,
      "Duration": 3,
      "PossibleStartDays": [
        15,
        23,
        25,
        9,
        29
      ],
      "SkillsRequested": [
        "C# Development"
      ],
      "RequestLocation": {
        "Latitude": 56.59911501,
        "Longitude": 57.7586344,
        "City": "Krasnoufimsk",
        "Postcode": "",
        "Country": "Russia",
        "Address": ""
      }
    },
    {
      "SelectedOption": null,
      "Duration": 3,
      "PossibleStartDays": [
        18,
        14,
        26,
        15,
        27
      ],
      "SkillsRequested": [
        "Reporting Services"
      ],
      "RequestLocation": {
        "Latitude": 3.800477314,
        "Longitude": 10.11999182,
        "City": "Edea",
        "Postcode": "",
        "Country": "Cameroon",
        "Address": ""
      }
    },
    {
      "SelectedOption": null,
      "Duration": 3,
      "PossibleStartDays": [
        11,
        7,
        8,
        13,
        27
      ],
      "SkillsRequested": [
        "SQL Server Admin"
      ],
      "RequestLocation": {
        "Latitude": 60.72890973,
        "Longitude": -46.03641168,
        "City": "Qaqortoq",
        "Postcode": "",
        "Country": "Greenland",
        "Address": ""
      }
    },
    {
      "SelectedOption": null,
      "Duration": 2,
      "PossibleStartDays": [
        15,
        12,
        24,
        23,
        5
      ],
      "SkillsRequested": [
        "Integration Services"
      ],
      "RequestLocation": {
        "Latitude": 47.55036501,
        "Longitude": 31.33332231,
        "City": "Voznesensk",
        "Postcode": "",
        "Country": "Ukraine",
        "Address": ""
      }
    },
    {
      "SelectedOption": null,
      "Duration": 3,
      "PossibleStartDays": [
        11,
        0,
        27,
        19,
        24
      ],
      "SkillsRequested": [
        "SQL Server Admin"
      ],
      "RequestLocation": {
        "Latitude": -3.249583314,
        "Longitude": 35.51999182,
        "City": "Ngorongoro",
        "Postcode": "",
        "Country": "Tanzania",
        "Address": ""
      }
    },
    {
      "SelectedOption": null,
      "Duration": 1,
      "PossibleStartDays": [
        10,
        4,
        9,
        13,
        19
      ],
      "SkillsRequested": [
        "SQL Server Development"
      ],
      "RequestLocation": {
        "Latitude": 50.90003135,
        "Longitude": -1.399976849,
        "City": "Southampton",
        "Postcode": "",
        "Country": "United Kingdom",
        "Address": ""
      }
    },
    {
      "SelectedOption": null,
      "Duration": 3,
      "PossibleStartDays": [
        28,
        0,
        19,
        8,
        13
      ],
      "SkillsRequested": [
        "Reporting Services"
      ],
      "RequestLocation": {
        "Latitude": 42.72771364,
        "Longitude": -87.81183415,
        "City": "Racine",
        "Postcode": "",
        "Country": "United States of America",
        "Address": ""
      }
    },
    {
      "SelectedOption": null,
      "Duration": 1,
      "PossibleStartDays": [
        29,
        19,
        9,
        17,
        25
      ],
      "SkillsRequested": [
        "C# Development"
      ],
      "RequestLocation": {
        "Latitude": -24.61959674,
        "Longitude": 17.95992672,
        "City": "Mariental",
        "Postcode": "",
        "Country": "Namibia",
        "Address": ""
      }
    },
    {
      "SelectedOption": null,
      "Duration": 2,
      "PossibleStartDays": [
        19,
        24,
        4,
        27,
        22
      ],
      "SkillsRequested": [
        "Azure Machine Learning"
      ],
      "RequestLocation": {
        "Latitude": 2.038310973,
        "Longitude": 103.317869,
        "City": "Keluang",
        "Postcode": "",
        "Country": "Malaysia",
        "Address": ""
      }
    },
    {
      "SelectedOption": null,
      "Duration": 1,
      "PossibleStartDays": [
        3,
        23,
        28,
        13,
        29
      ],
      "SkillsRequested": [
        "Data Factory"
      ],
      "RequestLocation": {
        "Latitude": -3.119513734,
        "Longitude": -40.83999841,
        "City": "Granja",
        "Postcode": "",
        "Country": "Brazil",
        "Address": ""
      }
    },
    {
      "SelectedOption": null,
      "Duration": 4,
      "PossibleStartDays": [
        25,
        5,
        3,
        16,
        19
      ],
      "SkillsRequested": [
        "SQL Server Admin"
      ],
      "RequestLocation": {
        "Latitude": 31.92005292,
        "Longitude": 54.37000403,
        "City": "Yazd",
        "Postcode": "",
        "Country": "Iran",
        "Address": ""
      }
    },
    {
      "SelectedOption": null,
      "Duration": 2,
      "PossibleStartDays": [
        20,
        4,
        27,
        9,
        29
      ],
      "SkillsRequested": [
        "Data Factory"
      ],
      "RequestLocation": {
        "Latitude": 26.7499809,
        "Longitude": 94.21666744,
        "City": "Jorhat",
        "Postcode": "",
        "Country": "India",
        "Address": ""
      }
    },
    {
      "SelectedOption": null,
      "Duration": 3,
      "PossibleStartDays": [
        24,
        15,
        1,
        27,
        6
      ],
      "SkillsRequested": [
        "Azure Machine Learning"
      ],
      "RequestLocation": {
        "Latitude": 19.16997845,
        "Longitude": 77.30002559,
        "City": "Nanded",
        "Postcode": "",
        "Country": "India",
        "Address": ""
      }
    },
    {
      "SelectedOption": null,
      "Duration": 4,
      "PossibleStartDays": [
        10,
        28,
        24,
        17,
        16
      ],
      "SkillsRequested": [
        "SQL Server on Linux"
      ],
      "RequestLocation": {
        "Latitude": 50.35538759,
        "Longitude": 83.5149434,
        "City": "Ridder",
        "Postcode": "",
        "Country": "Kazakhstan",
        "Address": ""
      }
    },
    {
      "SelectedOption": null,
      "Duration": 3,
      "PossibleStartDays": [
        23,
        15,
        10,
        2,
        5
      ],
      "SkillsRequested": [
        "SQL Server Admin"
      ],
      "RequestLocation": {
        "Latitude": -7.629574362,
        "Longitude": 112.9000232,
        "City": "Pasuruan",
        "Postcode": "",
        "Country": "Indonesia",
        "Address": ""
      }
    },
    {
      "SelectedOption": null,
      "Duration": 4,
      "PossibleStartDays": [
        1,
        6,
        23,
        4,
        15
      ],
      "SkillsRequested": [
        "Data Factory"
      ],
      "RequestLocation": {
        "Latitude": 49.62600011,
        "Longitude": 63.49899651,
        "City": "Turgay",
        "Postcode": "",
        "Country": "Kazakhstan",
        "Address": ""
      }
    },
    {
      "SelectedOption": null,
      "Duration": 3,
      "PossibleStartDays": [
        12,
        4,
        19,
        11,
        18
      ],
      "SkillsRequested": [
        "Data Factory"
      ],
      "RequestLocation": {
        "Latitude": -22.33002073,
        "Longitude": -49.08001225,
        "City": "Bauru",
        "Postcode": "",
        "Country": "Brazil",
        "Address": ""
      }
    },
    {
      "SelectedOption": null,
      "Duration": 3,
      "PossibleStartDays": [
        17,
        24,
        4,
        14,
        6
      ],
      "SkillsRequested": [
        "Data Factory"
      ],
      "RequestLocation": {
        "Latitude": 1.233708922,
        "Longitude": 19.80002112,
        "City": "Basankusu",
        "Postcode": "",
        "Country": "Congo (Kinshasa)",
        "Address": ""
      }
    },
    {
      "SelectedOption": null,
      "Duration": 3,
      "PossibleStartDays": [
        19,
        21,
        16,
        15,
        4
      ],
      "SkillsRequested": [
        "Windows Server"
      ],
      "RequestLocation": {
        "Latitude": -7.325406882,
        "Longitude": 108.2146761,
        "City": "Tasikmalaya",
        "Postcode": "",
        "Country": "Indonesia",
        "Address": ""
      }
    },
    {
      "SelectedOption": null,
      "Duration": 3,
      "PossibleStartDays": [
        16,
        24,
        19,
        2,
        27
      ],
      "SkillsRequested": [
        "Azure Machine Learning"
      ],
      "RequestLocation": {
        "Latitude": 36.67498232,
        "Longitude": 116.9950187,
        "City": "Jinan",
        "Postcode": "",
        "Country": "China",
        "Address": ""
      }
    },
    {
      "SelectedOption": null,
      "Duration": 3,
      "PossibleStartDays": [
        19,
        26,
        29,
        5,
        14
      ],
      "SkillsRequested": [
        "Reporting Services"
      ],
      "RequestLocation": {
        "Latitude": -26.80003213,
        "Longitude": 153.1333296,
        "City": "Caloundra",
        "Postcode": "",
        "Country": "Australia",
        "Address": ""
      }
    },
    {
      "SelectedOption": null,
      "Duration": 4,
      "PossibleStartDays": [
        17,
        27,
        21,
        25,
        7
      ],
      "SkillsRequested": [
        "SQL Server on Linux"
      ],
      "RequestLocation": {
        "Latitude": 30.38916445,
        "Longitude": 47.70798173,
        "City": "Az Aubayr",
        "Postcode": "",
        "Country": "Iraq",
        "Address": ""
      }
    },
    {
      "SelectedOption": null,
      "Duration": 3,
      "PossibleStartDays": [
        27,
        14,
        21,
        25,
        18
      ],
      "SkillsRequested": [
        "Azure Machine Learning"
      ],
      "RequestLocation": {
        "Latitude": 41.24108604,
        "Longitude": -77.0013829,
        "City": "Williamsport",
        "Postcode": "",
        "Country": "United States of America",
        "Address": ""
      }
    },
    {
      "SelectedOption": null,
      "Duration": 3,
      "PossibleStartDays": [
        21,
        22,
        16,
        28,
        6
      ],
      "SkillsRequested": [
        "Windows Server"
      ],
      "RequestLocation": {
        "Latitude": -5.429742201,
        "Longitude": 154.6711375,
        "City": "Sohano",
        "Postcode": "",
        "Country": "Papua New Guinea",
        "Address": ""
      }
    }
  ],
  "Sequence": [],
  "Locations": [],
  "MilageAllowance": -2.0,
  "AllowTripContinuation": false,
  "Distances": [],
  "AvgTravelSpeed": 60,
  "HourlyWage": -60,
  "HotelCostPerNight": -150,
  "RevenuePerDayOnsite": 1640,
  "AllowUnprofitableRequests": true,
  "PermutateOptions": false
}