{
  "ModelEvaluations": 0,
  "Skills": [
    "SQL Server Admin",
    "SQL Server Development",
    "Windows Server",
    "Data Factory",
    "C# Development",
    "Integration Services",
    "Reporting Services",
    "Azure Machine Learning",
    "SQL Server on Linux"
  ],
  "Engineers": [
    {
      "Name": "E0",
      "AssignedRequests": {},
      "Skills": [
        "Reporting Services",
        "Azure Machine Learning",
        "SQL Server Admin"
      ],
      "HomeOffice": {
        "Latitude": 5.11037152,
        "Longitude": -1.249986004,
        "City": "Cape Coast",
        "Postcode": "",
        "Country": "Ghana",
        "Address": ""
      }
    },
    {
      "Name": "E1",
      "AssignedRequests": {},
      "Skills": [
        "SQL Server Admin",
        "Azure Machine Learning",
        "C# Development",
        "Data Factory"
      ],
      "HomeOffice": {
        "Latitude": -23.41000649,
        "Longitude": -51.43004968,
        "City": "Arapongas",
        "Postcode": "",
        "Country": "Brazil",
        "Address": ""
      }
    },
    {
      "Name": "E2",
      "AssignedRequests": {},
      "Skills": [
        "Reporting Services",
        "Windows Server",
        "Integration Services"
      ],
      "HomeOffice": {
        "Latitude": 27.44678591,
        "Longitude": -80.3258053,
        "City": "Fort Pierce",
        "Postcode": "",
        "Country": "United States of America",
        "Address": ""
      }
    },
    {
      "Name": "E3",
      "AssignedRequests": {},
      "Skills": [
        "SQL Server Development",
        "Data Factory",
        "Reporting Services",
        "C# Development"
      ],
      "HomeOffice": {
        "Latitude": 44.21997398,
        "Longitude": 17.91998083,
        "City": "Zenica",
        "Postcode": "",
        "Country": "Bosnia and Herzegovina",
        "Address": ""
      }
    },
    {
      "Name": "E4",
      "AssignedRequests": {},
      "Skills": [
        "Azure Machine Learning",
        "SQL Server on Linux",
        "Integration Services"
      ],
      "HomeOffice": {
        "Latitude": 21.13042727,
        "Longitude": -88.14997888,
        "City": "Tizimin",
        "Postcode": "",
        "Country": "Mexico",
        "Address": ""
      }
    },
    {
      "Name": "E5",
      "AssignedRequests": {},
      "Skills": [
        "Data Factory",
        "C# Development",
        "SQL Server on Linux"
      ],
      "HomeOffice": {
        "Latitude": 49.5166791,
        "Longitude": -115.7666653,
        "City": "Cranbrook",
        "Postcode": "",
        "Country": "Canada",
        "Address": ""
      }
    },
    {
      "Name": "E6",
      "AssignedRequests": {},
      "Skills": [
        "Reporting Services",
        "Integration Services",
        "SQL Server Admin"
      ],
      "HomeOffice": {
        "Latitude": 7.530042947,
        "Longitude": 1.120024372,
        "City": "Atakpame",
        "Postcode": "",
        "Country": "Togo",
        "Address": ""
      }
    }
  ],
  "Requests": [
    {
      "SelectedOption": null,
      "Duration": 1,
      "PossibleStartDays": [
        2,
        9,
        28,
        18,
        22
      ],
      "SkillsRequested": [
        "SQL Server on Linux"
      ],
      "RequestLocation": {
        "Latitude": 35.40040895,
        "Longitude": 0.14003251,
        "City": "Mascara",
        "Postcode": "",
        "Country": "Algeria",
        "Address": ""
      }
    },
    {
      "SelectedOption": null,
      "Duration": 1,
      "PossibleStartDays": [
        17,
        12,
        26,
        21,
        25
      ],
      "SkillsRequested": [
        "Integration Services"
      ],
      "RequestLocation": {
        "Latitude": 32.71261436,
        "Longitude": -103.1406143,
        "City": "Hobbs",
        "Postcode": "",
        "Country": "United States of America",
        "Address": ""
      }
    },
    {
      "SelectedOption": null,
      "Duration": 2,
      "PossibleStartDays": [
        15,
        23,
        2,
        0,
        25
      ],
      "SkillsRequested": [
        "SQL Server on Linux"
      ],
      "RequestLocation": {
        "Latitude": 11.0799813,
        "Longitude": 7.710009724,
        "City": "Zaria",
        "Postcode": "",
        "Country": "Nigeria",
        "Address": ""
      }
    },
    {
      "SelectedOption": null,
      "Duration": 4,
      "PossibleStartDays": [
        16,
        7,
        2,
        8,
        17
      ],
      "SkillsRequested": [
        "Windows Server"
      ],
      "RequestLocation": {
        "Latitude": 46.30000205,
        "Longitude": 100.9833345,
        "City": "Bayankhongor",
        "Postcode": "",
        "Country": "Mongolia",
        "Address": ""
      }
    },
    {
      "SelectedOption": null,
      "Duration": 3,
      "PossibleStartDays": [
        9,
        13,
        16,
        28,
        3
      ],
      "SkillsRequested": [
        "Windows Server"
      ],
      "RequestLocation": {
        "Latitude": 7.190399596,
        "Longitude": 1.98999711,
        "City": "Abomey",
        "Postcode": "",
        "Country": "Benin",
        "Address": ""
      }
    },
    {
      "SelectedOption": null,
      "Duration": 4,
      "PossibleStartDays": [
        18,
        27,
        17,
        25,
        3
      ],
      "SkillsRequested": [
        "SQL Server Admin"
      ],
      "RequestLocation": {
        "Latitude": 37.87501243,
        "Longitude": 32.47500972,
        "City": "Konya",
        "Postcode": "",
        "Country": "Turkey",
        "Address": ""
      }
    },
    {
      "SelectedOption": null,
      "Duration": 3,
      "PossibleStartDays": [
        15,
        4,
        9,
        27,
        6
      ],
      "SkillsRequested": [
        "Integration Services"
      ],
      "RequestLocation": {
        "Latitude": -18.26670286,
        "Longitude": 127.7667126,
        "City": "Halls Creek",
        "Postcode": "",
        "Country": "Australia",
        "Address": ""
      }
    },
    {
      "SelectedOption": null,
      "Duration": 3,
      "PossibleStartDays": [
        5,
        17,
        20,
        16,
        9
      ],
      "SkillsRequested": [
        "Data Factory"
      ],
      "RequestLocation": {
        "Latitude": 2.152997996,
        "Longitude": 11.33000156,
        "City": "Ebebiyin",
        "Postcode": "",
        "Country": "Gabon",
        "Address": ""
      }
    },
    {
      "SelectedOption": null,
      "Duration": 4,
      "PossibleStartDays": [
        18,
        29,
        5,
        11,
        16
      ],
      "SkillsRequested": [
        "Integration Services"
      ],
      "RequestLocation": {
        "Latitude": 37.07371767,
        "Longitude": 22.42967973,
        "City": "Sparti",
        "Postcode": "",
        "Country": "Greece",
        "Address": ""
      }
    },
    {
      "SelectedOption": null,
      "Duration": 2,
      "PossibleStartDays": [
        0,
        7,
        25,
        29,
        12
      ],
      "SkillsRequested": [
        "SQL Server Development"
      ],
      "RequestLocation": {
        "Latitude": 28.95948427,
        "Longitude": -95.35687748,
        "City": "Freeport",
        "Postcode": "",
        "Country": "United States of America",
        "Address": ""
      }
    },
    {
      "SelectedOption": null,
      "Duration": 2,
      "PossibleStartDays": [
        12,
        22,
        5,
        4,
        9
      ],
      "SkillsRequested": [
        "SQL Server Development"
      ],
      "RequestLocation": {
        "Latitude": 44.92807029,
        "Longitude": -123.0238967,
        "City": "Salem",
        "Postcode": "",
        "Country": "United States of America",
        "Address": ""
      }
    },
    {
      "SelectedOption": null,
      "Duration": 1,
      "PossibleStartDays": [
        18,
        27,
        7,
        5,
        13
      ],
      "SkillsRequested": [
        "SQL Server Development"
      ],
      "RequestLocation": {
        "Latitude": 42.83300437,
        "Longitude": -108.7325985,
        "City": "Lander",
        "Postcode": "",
        "Country": "United States of America",
        "Address": ""
      }
    },
    {
      "SelectedOption": null,
      "Duration": 2,
      "PossibleStartDays": [
        6,
        15,
        17,
        27,
        7
      ],
      "SkillsRequested": [
        "SQL Server Development"
      ],
      "RequestLocation": {
        "Latitude": -15.37395953,
        "Longitude": 128.3600614,
        "City": "Wyndham",
        "Postcode": "",
        "Country": "Australia",
        "Address": ""
      }
    },
    {
      "SelectedOption": null,
      "Duration": 4,
      "PossibleStartDays": [
        21,
        26,
        29,
        11,
        28
      ],
      "SkillsRequested": [
        "Data Factory"
      ],
      "RequestLocation": {
        "Latitude": 17.50653994,
        "Longitude": 44.1315592,
        "City": "Najran",
        "Postcode": "",
        "Country": "Saudi Arabia",
        "Address": ""
      }
    },
    {
      "SelectedOption": null,
      "Duration": 4,
      "PossibleStartDays": [
        3,
        16,
        12,
        5,
        13
      ],
      "SkillsRequested": [
        "C# Development"
      ],
      "RequestLocation": {
        "Latitude": 16.29325482,
        "Longitude": 95.68288285,
        "City": "Phyarpon",
        "Postcode": "",
        "Country": "Myanmar",
        "Address": ""
      }
    },
    {
      "SelectedOption": null,
      "Duration": 2,
      "PossibleStartDays": [
        6,
        28,
        13,
        21,
        0
      ],
      "SkillsRequested": [
        "Windows Server"
      ],
      "RequestLocation": {
        "Latitude": 40.02304669,
        "Longitude": 52.96967606,
        "City": "Turkmenbasy",
        "Postcode": "",
        "Country": "Turkmenistan",
        "Address": ""
      }
    },
    {
      "SelectedOption": null,
      "Duration": 3,
      "PossibleStartDays": [
        24,
        6,
        27,
        12,
        8
      ],
      "SkillsRequested": [
        "Reporting Services"
      ],
      "RequestLocation": {
        "Latitude": 31.55480389,
        "Longitude": -91.38750737,
        "City": "Natchez",
        "Postcode": "",
        "Country": "United States of America",
        "Address": ""
      }
    },
    {
      "SelectedOption": null,
      "Duration": 1,
      "PossibleStartDays": [
        24,
        13,
        3,
        5,
        19
      ],
      "SkillsRequested": [
        "Integration Services"
      ],
      "RequestLocation": {
        "Latitude": -27.76002521,
        "Longitude": 30.7899963,
        "City": "Vryheid",
        "Postcode": "",
        "Country": "South Africa",
        "Address": ""
      }
    },
    {
      "SelectedOption": null,
      "Duration": 1,
      "PossibleStartDays": [
        10,
        22,
        19,
        29,
        5
      ],
      "SkillsRequested": [
        "Reporting Services"
      ],
      "RequestLocation": {
        "Latitude": -15.83294961,
        "Longitude": -70.03330693,
        "City": "Puno",
        "Postcode": "",
        "Country": "Peru",
        "Address": ""
      }
    },
    {
      "SelectedOption": null,
      "Duration": 3,
      "PossibleStartDays": [
        0,
        9,
        18,
        20,
        10
      ],
      "SkillsRequested": [
        "SQL Server Admin"
      ],
      "RequestLocation": {
        "Latitude": 35.12502525,
        "Longitude": 33.95001013,
        "City": "Ammochostos",
        "Postcode": "",
        "Country": "Northern Cyprus",
        "Address": ""
      }
    },
    {
      "SelectedOption": null,
      "Duration": 1,
      "PossibleStartDays": [
        22,
        26,
        5,
        6,
        28
      ],
      "SkillsRequested": [
        "Integration Services"
      ],
      "RequestLocation": {
        "Latitude": 36.43342084,
        "Longitude": -99.39769027,
        "City": "Woodward",
        "Postcode": "",
        "Country": "United States of America",
        "Address": ""
      }
    },
    {
      "SelectedOption": null,
      "Duration": 4,
      "PossibleStartDays": [
        0,
        26,
        22,
        2,
        11
      ],
      "SkillsRequested": [
        "Data Factory"
      ],
      "RequestLocation": {
        "Latitude": 24.64083315,
        "Longitude": 46.77274166,
        "City": "Riyadh",
        "Postcode": "",
        "Country": "Saudi Arabia",
        "Address": ""
      }
    },
    {
      "SelectedOption": null,
      "Duration": 2,
      "PossibleStartDays": [
        9,
        6,
        3,
        24,
        13
      ],
      "SkillsRequested": [
        "SQL Server Admin"
      ],
      "RequestLocation": {
        "Latitude": -5.949573549,
        "Longitude": 28.0166772,
        "City": "Nyunzu",
        "Postcode": "",
        "Country": "Congo (Kinshasa)",
        "Address": ""
      }
    },
    {
      "SelectedOption": null,
      "Duration": 3,
      "PossibleStartDays": [
        4,
        23,
        10,
        6,
        22
      ],
      "SkillsRequested": [
        "Integration Services"
      ],
      "RequestLocation": {
        "Latitude": 47.13682436,
        "Longitude": 39.744850219999996,
        "City": "Bataysk",
        "Postcode": "",
        "Country": "Russia",
        "Address": ""
      }
    },
    {
      "SelectedOption": null,
      "Duration": 1,
      "PossibleStartDays": [
        7,
        27,
        13,
        14,
        11
      ],
      "SkillsRequested": [
        "Windows Server"
      ],
      "RequestLocation": {
        "Latitude": -20.45003213,
        "Longitude": -63.52998295,
        "City": "Cuevo",
        "Postcode": "",
        "Country": "Bolivia",
        "Address": ""
      }
    },
    {
      "SelectedOption": null,
      "Duration": 4,
      "PossibleStartDays": [
        21,
        9,
        29,
        16,
        19
      ],
      "SkillsRequested": [
        "Integration Services"
      ],
      "RequestLocation": {
        "Latitude": 48.02966392,
        "Longitude": 37.97462235,
        "City": "Makiyivka",
        "Postcode": "",
        "Country": "Ukraine",
        "Address": ""
      }
    },
    {
      "SelectedOption": null,
      "Duration": 3,
      "PossibleStartDays": [
        11,
        3,
        24,
        23,
        8
      ],
      "SkillsRequested": [
        "C# Development"
      ],
      "RequestLocation": {
        "Latitude": 34.65000001,
        "Longitude": 70.16670052,
        "City": "Mehtar Lam",
        "Postcode": "",
        "Country": "Afghanistan",
        "Address": ""
      }
    },
    {
      "SelectedOption": null,
      "Duration": 1,
      "PossibleStartDays": [
        24,
        29,
        12,
        4,
        8
      ],
      "SkillsRequested": [
        "C# Development"
      ],
      "RequestLocation": {
        "Latitude": 43.54208254,
        "Longitude": 79.47028072,
        "City": "Shonzhy",
        "Postcode": "",
        "Country": "Kazakhstan",
        "Address": ""
      }
    },
    {
      "SelectedOption": null,
      "Duration": 4,
      "PossibleStartDays": [
        4,
        10,
        1,
        18,
        25
      ],
      "SkillsRequested": [
        "Azure Machine Learning"
      ],
      "RequestLocation": {
        "Latitude": -5.429742201,
        "Longitude": 154.6711375,
        "City": "Sohano",
        "Postcode": "",
        "Country": "Papua New Guinea",
        "Address": ""
      }
    },
    {
      "SelectedOption": null,
      "Duration": 4,
      "PossibleStartDays": [
        5,
        22,
        11,
        21,
        3
      ],
      "SkillsRequested": [
        "Windows Server"
      ],
      "RequestLocation": {
        "Latitude": 55.28149518,
        "Longitude": -77.76583236,
        "City": "Kuujjuarapik",
        "Postcode": "",
        "Country": "Canada",
        "Address": ""
      }
    },
    {
      "SelectedOption": null,
      "Duration": 2,
      "PossibleStartDays": [
        19,
        11,
        29,
        8,
        12
      ],
      "SkillsRequested": [
        "Data Factory"
      ],
      "RequestLocation": {
        "Latitude": -38.95003986,
        "Longitude": -68.05999068,
        "City": "Neuquen",
        "Postcode": "",
        "Country": "Argentina",
        "Address": ""
      }
    },
    {
      "SelectedOption": null,
      "Duration": 2,
      "PossibleStartDays": [
        28,
        17,
        29,
        13,
        14
      ],
      "SkillsRequested": [
        "SQL Server Admin"
      ],
      "RequestLocation": {
        "Latitude": -6.049619121,
        "Longitude": -76.96665633,
        "City": "Moyobamba",
        "Postcode": "",
        "Country": "Peru",
        "Address": ""
      }
    },
    {
      "SelectedOption": null,
      "Duration": 2,
      "PossibleStartDays": [
        21,
        15,
        10,
        28,
        16
      ],
      "SkillsRequested": [
        "Windows Server"
      ],
      "RequestLocation": {
        "Latitude": 22.85042564,
        "Longitude": -105.7999868,
        "City": "Escuinapa",
        "Postcode": "",
        "Country": "Mexico",
        "Address": ""
      }
    },
    {
      "SelectedOption": null,
      "Duration": 2,
      "PossibleStartDays": [
        17,
        16,
        23,
        13,
        9
      ],
      "SkillsRequested": [
        "Integration Services"
      ],
      "RequestLocation": {
        "Latitude": 11.93372764,
        "Longitude": -85.94998397,
        "City": "Granada",
        "Postcode": "",
        "Country": "Nicaragua",
        "Address": ""
      }
    },
    {
      "SelectedOption": null,
      "Duration": 4,
      "PossibleStartDays": [
        27,
        23,
        10,
        12,
        20
      ],
      "SkillsRequested": [
        "C# Development"
      ],
      "RequestLocation": {
        "Latitude": -42.85000853,
        "Longitude": 147.2950297,
        "City": "Hobart",
        "Postcode": "",
        "Country": "Australia",
        "Address": ""
      }
    },
    {
      "SelectedOption": null,
      "Duration": 3,
      "PossibleStartDays": [
        26,
        6,
        23,
        21,
        8
      ],
      "SkillsRequested": [
        "Integration Services"
      ],
      "RequestLocation": {
        "Latitude": 39.96292116,
        "Longitude": -76.72804041,
        "City": "York",
        "Postcode": "",
        "Country": "United States of America",
        "Address": ""
      }
    },
    {
      "SelectedOption": null,
      "Duration": 4,
      "PossibleStartDays": [
        29,
        20,
        11,
        21,
        25
      ],
      "SkillsRequested": [
        "Data Factory"
      ],
      "RequestLocation": {
        "Latitude": 49.80043439,
        "Longitude": 9.950028034,
        "City": "Wurzburg",
        "Postcode": "",
        "Country": "Germany",
        "Address": ""
      }
    },
    {
      "SelectedOption": null,
      "Duration": 3,
      "PossibleStartDays": [
        26,
        3,
        9,
        5,
        15
      ],
      "SkillsRequested": [
        "Azure Machine Learning"
      ],
      "RequestLocation": {
        "Latitude": 18.1988491,
        "Longitude": 120.5936104,
        "City": "Laoag",
        "Postcode": "",
        "Country": "Philippines",
        "Address": ""
      }
    },
    {
      "SelectedOption": null,
      "Duration": 2,
      "PossibleStartDays": [
        28,
        16,
        23,
        8,
        24
      ],
      "SkillsRequested": [
        "Data Factory"
      ],
      "RequestLocation": {
        "Latitude": -32.58960122,
        "Longitude": 149.5801098,
        "City": "Mudgee",
        "Postcode": "",
        "Country": "Australia",
        "Address": ""
      }
    },
    {
      "SelectedOption": null,
      "Duration": 3,
      "PossibleStartDays": [
        19,
        2,
        11,
        23,
        26
      ],
      "SkillsRequested": [
        "Windows Server"
      ],
      "RequestLocation": {
        "Latitude": 32.50001752,
        "Longitude": -93.77002344,
        "City": "Shreveport",
        "Postcode": "",
        "Country": "United States of America",
        "Address": ""
      }
    },
    {
      "SelectedOption": null,
      "Duration": 1,
      "PossibleStartDays": [
        0,
        9,
        7,
        20,
        24
      ],
      "SkillsRequested": [
        "Data Factory"
      ],
      "RequestLocation": {
        "Latitude": 42.65185264,
        "Longitude": -83.29022384,
        "City": "Pontiac",
        "Postcode": "",
        "Country": "United States of America",
        "Address": ""
      }
    },
    {
      "SelectedOption": null,
      "Duration": 1,
      "PossibleStartDays": [
        16,
        23,
        17,
        19,
        14
      ],
      "SkillsRequested": [
        "Reporting Services"
      ],
      "RequestLocation": {
        "Latitude": -5.114999167,
        "Longitude": -42.84496647,
        "City": "Timon",
        "Postcode": "",
        "Country": "Brazil",
        "Address": ""
      }
    },
    {
      "SelectedOption": null,
      "Duration": 2,
      "PossibleStartDays": [
        12,
        22,
        1,
        3,
        4
      ],
      "SkillsRequested": [
        "SQL Server Development"
      ],
      "RequestLocation": {
        "Latitude": 41.33038291,
        "Longitude": -72.90000533,
        "City": "New Haven",
        "Postcode": "",
        "Country": "United States of America",
        "Address": ""
      }
    },
    {
      "SelectedOption": null,
      "Duration": 1,
      "PossibleStartDays": [
        6,
        18,
        8,
        2,
        29
      ],
      "SkillsRequested": [
        "Data Factory"
      ],
      "RequestLocation": {
        "Latitude": 14.43699912,
        "Longitude": -89.18199855,
        "City": "Nueva Ocotepeque",
        "Postcode": "",
        "Country": "Honduras",
        "Address": ""
      }
    },
    {
      "SelectedOption": null,
      "Duration": 4,
      "PossibleStartDays": [
        14,
        28,
        24,
        20,
        4
      ],
      "SkillsRequested": [
        "Reporting Services"
      ],
      "RequestLocation": {
        "Latitude": 25.70043256,
        "Longitude": 28.88329097,
        "City": "El Qasr",
        "Postcode": "",
        "Country": "Egypt",
        "Address": ""
      }
    },
    {
      "SelectedOption": null,
      "Duration": 2,
      "PossibleStartDays": [
        21,
        1,
        2,
        9,
        24
      ],
      "SkillsRequested": [
        "Windows Server"
      ],
      "RequestLocation": {
        "Latitude": -3.570028871,
        "Longitude": -80.45998316,
        "City": "Tumbes",
        "Postcode": "",
        "Country": "Peru",
        "Address": ""
      }
    },
    {
      "SelectedOption": null,
      "Duration": 1,
      "PossibleStartDays": [
        10,
        4,
        15,
        27,
        29
      ],
      "SkillsRequested": [
        "Windows Server"
      ],
      "RequestLocation": {
        "Latitude": -5.509600404,
        "Longitude": -45.25996118,
        "City": "Barra do Corda",
        "Postcode": "",
        "Country": "Brazil",
        "Address": ""
      }
    },
    {
      "SelectedOption": null,
      "Duration": 4,
      "PossibleStartDays": [
        8,
        12,
        25,
        15,
        14
      ],
      "SkillsRequested": [
        "SQL Server Development"
      ],
      "RequestLocation": {
        "Latitude": 10.59556643,
        "Longitude": 14.32469641,
        "City": "Maroua",
        "Postcode": "",
        "Country": "Cameroon",
        "Address": ""
      }
    },
    {
      "SelectedOption": null,
      "Duration": 4,
      "PossibleStartDays": [
        21,
        27,
        0,
        10,
        22
      ],
      "SkillsRequested": [
        "Windows Server"
      ],
      "RequestLocation": {
        "Latitude": 52.01476951,
        "Longitude": 48.79437537,
        "City": "Pugachev",
        "Postcode": "",
        "Country": "Russia",
        "Address": ""
      }
    },
    {
      "SelectedOption": null,
      "Duration": 3,
      "PossibleStartDays": [
        4,
        12,
        3,
        28,
        2
      ],
      "SkillsRequested": [
        "Data Factory"
      ],
      "RequestLocation": {
        "Latitude": 31.48000226,
        "Longitude": 92.05002966,
        "City": "Nagchu",
        "Postcode": "",
        "Country": "China",
        "Address": ""
      }
    },
    {
      "SelectedOption": null,
      "Duration": 3,
      "PossibleStartDays": [
        1,
        21,
        25,
        11,
        12
      ],
      "SkillsRequested": [
        "C# Development"
      ],
      "RequestLocation": {
        "Latitude": 42.30037539,
        "Longitude": -83.71999089,
        "City": "Ann Arbor",
        "Postcode": "",
        "Country": "United States of America",
        "Address": ""
      }
    },
    {
      "SelectedOption": null,
      "Duration": 4,
      "PossibleStartDays": [
        17,
        11,
        22,
        18,
        4
      ],
      "SkillsRequested": [
        "Reporting Services"
      ],
      "RequestLocation": {
        "Latitude": -19.24002846,
        "Longitude": 17.71001949,
        "City": "Tsumeb",
        "Postcode": "",
        "Country": "Namibia",
        "Address": ""
      }
    },
    {
      "SelectedOption": null,
      "Duration": 4,
      "PossibleStartDays": [
        10,
        0,
        3,
        26,
        18
      ],
      "SkillsRequested": [
        "Windows Server"
      ],
      "RequestLocation": {
        "Latitude": -34.38003457,
        "Longitude": -71.99998275,
        "City": "Pichilemu",
        "Postcode": "",
        "Country": "Chile",
        "Address": ""
      }
    },
    {
      "SelectedOption": null,
      "Duration": 3,
      "PossibleStartDays": [
        25,
        14,
        2,
        7,
        6
      ],
      "SkillsRequested": [
        "C# Development"
      ],
      "RequestLocation": {
        "Latitude": 28.95000165,
        "Longitude": 89.63332963,
        "City": "Gyangze",
        "Postcode": "",
        "Country": "China",
        "Address": ""
      }
    },
    {
      "SelectedOption": null,
      "Duration": 4,
      "PossibleStartDays": [
        11,
        23,
        28,
        10,
        26
      ],
      "SkillsRequested": [
        "SQL Server Admin"
      ],
      "RequestLocation": {
        "Latitude": 40.70070559,
        "Longitude": -99.08114628,
        "City": "Kearney",
        "Postcode": "",
        "Country": "United States of America",
        "Address": ""
      }
    },
    {
      "SelectedOption": null,
      "Duration": 4,
      "PossibleStartDays": [
        22,
        10,
        25,
        19,
        7
      ],
      "SkillsRequested": [
        "Windows Server"
      ],
      "RequestLocation": {
        "Latitude": -6.509539369,
        "Longitude": 22.87001461,
        "City": "Dibaya",
        "Postcode": "",
        "Country": "Congo (Kinshasa)",
        "Address": ""
      }
    },
    {
      "SelectedOption": null,
      "Duration": 2,
      "PossibleStartDays": [
        18,
        1,
        13,
        10,
        4
      ],
      "SkillsRequested": [
        "Azure Machine Learning"
      ],
      "RequestLocation": {
        "Latitude": 11.61753897,
        "Longitude": 102.9849329,
        "City": "Krong Koh Kong",
        "Postcode": "",
        "Country": "Cambodia",
        "Address": ""
      }
    },
    {
      "SelectedOption": null,
      "Duration": 1,
      "PossibleStartDays": [
        27,
        3,
        20,
        9,
        5
      ],
      "SkillsRequested": [
        "SQL Server Development"
      ],
      "RequestLocation": {
        "Latitude": 6.275003274,
        "Longitude": -75.57501001,
        "City": "Medellin",
        "Postcode": "",
        "Country": "Colombia",
        "Address": ""
      }
    },
    {
      "SelectedOption": null,
      "Duration": 4,
      "PossibleStartDays": [
        13,
        8,
        0,
        4,
        26
      ],
      "SkillsRequested": [
        "SQL Server Admin"
      ],
      "RequestLocation": {
        "Latitude": 56.3819448,
        "Longitude": 68.37147497,
        "City": "Golyshmanovo",
        "Postcode": "",
        "Country": "Russia",
        "Address": ""
      }
    },
    {
      "SelectedOption": null,
      "Duration": 1,
      "PossibleStartDays": [
        17,
        8,
        16,
        9,
        6
      ],
      "SkillsRequested": [
        "Reporting Services"
      ],
      "RequestLocation": {
        "Latitude": 47.20997235,
        "Longitude": 123.6100154,
        "City": "Hulan Ergi",
        "Postcode": "",
        "Country": "China",
        "Address": ""
      }
    }
  ],
  "Sequence": [],
  "Locations": [],
  "MilageAllowance": -2.0,
  "AllowTripContinuation": false,
  "Distances": [],
  "AvgTravelSpeed": 60,
  "HourlyWage": -60,
  "HotelCostPerNight": -150,
  "RevenuePerDayOnsite": 1640,
  "AllowUnprofitableRequests": true,
  "PermutateOptions": false
}